"관리기관명",소재지도로명주소,소재지지번주소,설치목적구분,카메라대수,카메라화소수,촬영방면정보,보관일수,설치년월,관리기관전화번호,위도,경도,데이터기준일자
"서울특별시 강남구청",서울특별시 강남구 논현로115길 55 (논현동),서울특별시 강남구 논현동 170-12,생활방범,1,200,360도전방면,30,2002-11,02-3423-6963,37.507970,127.028573,2017-11-13
"서울특별시 강남구청",서울특별시 강남구 논현로115길 31 (논현동),서울특별시 강남구 논현동 189-13,생활방범,1,200,360도전방면,30,2002-11,02-3423-6963,37.508284,127.030599,2017-11-13
"서울특별시 강남구청","서울특별시 강남구 논현로111길 7 (논현동, 영동빌라맨션)",서울특별시 강남구 논현동 192-12,생활방범,1,200,360도전방면,30,2010-09,02-3423-6963,37.507595,127.032601,2017-11-13
"서울특별시 강남구청","서울특별시 강남구 강남대로112길 41 (논현동, 거평프리젠아파트)",서울특별시 강남구 논현동 196,생활방범,1,200,360도전방면,30,2004-04,02-3423-6963,37.506134,127.027567,2017-11-13
"서울특별시 강남구청",서울특별시 강남구 강남대로114길 22 (논현동),서울특별시 강남구 논현동 197,생활방범,1,200,360도전방면,30,2010-09,02-3423-6963,37.506042,127.025989,2017-11-13
"서울특별시 강남구청",서울특별시 강남구 강남대로 478 (논현동),서울특별시 강남구 논현동 200,생활방범,1,200,360도전방면,30,2004-04,02-3423-6963,37.505121,127.024504,2017-11-13
"서울특별시 강남구청",서울특별시 강남구 강남대로120길 33 (논현동),서울특별시 강남구 논현동 167-15 (논현초 담장),어린이보호,1,200,360도전방면,30,2011-04,02-3423-6963,37.507973,127.025688,2017-11-13
"서울특별시 강남구청",서울특별시 강남구 논현동 162-11 (논현까치공원 내),서울특별시 강남구 논현동 162-11 (논현까치공원 내),생활방범,1,200,360도전방면,30,2011-04,02-3423-6963,37.508515,127.024952,2017-11-13
"서울특별시 강남구청",서울특별시 강남구 강남대로124길 65 (논현동),서울특별시 강남구 논현동 137-16 (성모어린이집 앞),어린이보호,1,200,360도전방면,30,2011-04,02-3423-6963,37.510872,127.026973,2017-11-13
"서울특별시 강남구청",서울특별시 강남구 도산대로26길 34-16 (논현동),서울특별시 강남구 논현동 31-9,생활방범,4,200,360도전방면,30,2011-12,02-3423-6963,37.516772,127.027246,2017-11-13
"서울특별시 강남구청",서울특별시 강남구 강남대로116길 26 (논현동),서울특별시 강남구 논현동 184-13,생활방범,5,200,360도전방면,30,2011-12,02-3423-6963,37.506608,127.026270,2017-11-13
"서울특별시 강남구청",서울특별시 강남구 학동로6길 48 (논현동),서울특별시 강남구 논현동 159-11,어린이보호,4,200,360도전방면,30,2011-12,02-3423-6963,37.509341,127.026334,2017-11-13
"서울특별시 강남구청",서울특별시 강남구 학동로19길 26 (논현동),서울특별시 강남구 논현동 39,생활방범,4,200,360도전방면,30,2012-11,02-3423-6963,37.514816,127.027049,2017-11-13
"서울특별시 강남구청",서울특별시 강남구 학동로19길 26 (논현동),서울특별시 강남구 논현동 39,생활방범,1,41,360도전방면,30,2009-02,02-3423-6963,37.514789,127.026901,2017-11-13
"서울특별시 강남구청",서울특별시 강남구 학동로 426 (삼성동),서울특별시 강남구 삼성동 16-1 (강남구청직장어린이집 앞),어린이보호,3,200,360도전방면,30,2012-12,02-3423-6963,37.517255,127.048211,2017-11-13
"서울특별시 강남구청",서울특별시 강남구 봉은사로74길 11-5 (삼성동),서울특별시 강남구 삼성동 117-12,생활방범,3,200,360도전방면,30,2014-01,02-3423-6963,37.512094,127.052064,2017-11-13
"서울특별시 강남구청",서울특별시 강남구 삼성동 111-116 (롯데캐슬프리미어 103동 옆),서울특별시 강남구 삼성동 111-116 (롯데캐슬프리미어 103동 옆),생활방범,3,200,360도전방면,30,2014-01,02-3423-6963,37.515637,127.044335,2017-11-13
"서울특별시 강남구청",서울특별시 강남구 봉은사로55길 44 (삼성동),서울특별시 강남구 삼성동 33-9,생활방범,4,200,360도전방면,30,2014-09,02-3423-6963,37.513324,127.043699,2017-11-13
"서울특별시 강남구청","서울특별시 강남구 학동로68길 30 (삼성동, 삼성동중앙하이츠빌리지)",서울특별시 강남구 삼성동 14 (삼성은행나무공원 내),생활방범,3,200,360도전방면,30,2014-09,02-3423-6963,37.516604,127.045979,2017-11-13
"서울특별시 강남구청",서울특별시 강남구 테헤란로79길 33 (삼성동),서울특별시 강남구 삼성동 129-4 (세븐일레븐편의점),생활방범,5,200,360도전방면,30,2014-09,02-3423-6963,37.509030,127.054423,2017-11-13
"서울특별시 강남구청",서울특별시 강남구 봉은사로74길 35 (삼성동),서울특별시 강남구 삼성동 121-20,생활방범,4,200,360도전방면,30,2014-09,02-3423-6963,37.510396,127.053065,2017-11-13
"서울특별시 강남구청","서울특별시 강남구 학동로 405 (청담동, 청담래미안아파트)",서울특별시 강남구 청담동 42 (삼성래미안A 102동 담장),생활방범,1,41,360도전방면,30,2004-08,02-3423-6963,37.518041,127.041961,2017-11-13
"서울특별시 강남구청",서울특별시 강남구 삼성로147길 18 (청담동),서울특별시 강남구 청담동 23-11 (영동고 담장),생활방범,3,200,360도전방면,30,2004-08,02-3423-6963,37.519472,127.041375,2017-11-13
"서울특별시 강남구청","서울특별시 강남구 선릉로132길 42 (청담동, 현대빌라아파트)",서울특별시 강남구 청담동 43-6,어린이보호,1,41,360도전방면,30,2004-08,02-3423-6963,37.518549,127.044849,2017-11-13
"서울특별시 강남구청","서울특별시 강남구 도산대로92길 10 (청담동, 청담대우유로카운티)",서울특별시 강남구 청담동 50-6 (대우유로카운티A 103동 앞),생활방범,4,200,360도전방면,30,2004-08,02-3423-6963,37.522968,127.049490,2017-11-13
"서울특별시 강남구청",서울특별시 강남구 청담동 54-7,서울특별시 강남구 청담동 54-7,생활방범,1,41,360도전방면,30,2004-08,02-3423-6963,37.523364,127.053993,2017-11-13
"서울특별시 강남구청","서울특별시 강남구 도산대로92길 10 (청담동, 청담대우유로카운티)",서울특별시 강남구 청담동 51-1 (대우유로카운티A 101동 담장),생활방범,1,41,360도전방면,30,2004-08,02-3423-6963,37.523787,127.050880,2017-11-13
"서울특별시 강남구청",서울특별시 강남구 도산대로100길 25 (청담동),서울특별시 강남구 청담동 55,생활방범,1,41,360도전방면,30,2004-08,02-3423-6963,37.523098,127.052323,2017-11-13
"서울특별시 강남구청",서울특별시 강남구 삼성로 720 (청담동),서울특별시 강남구 청담동 63-19,생활방범,1,41,360도전방면,30,2004-08,02-3423-6963,37.520205,127.050383,2017-11-13
"서울특별시 강남구청",서울특별시 강남구 영동대로131길 26 (청담동),서울특별시 강남구 청담동 61-10 (청담공원 담장),생활방범,5,200,360도전방면,30,2004-08,02-3423-6963,37.521651,127.050542,2017-11-13
"서울특별시 강남구청",서울특별시 강남구 학동로95길 19 (청담동),서울특별시 강남구 청담동 69 (청담공원 담장),생활방범,1,41,360도전방면,30,2009-02,02-3423-6963,37.522218,127.053416,2017-11-13
"서울특별시 강남구청",서울특별시 강남구 학동로 519 (청담동),서울특별시 강남구 청담동 73-4,생활방범,3,200,360도전방면,30,2004-08,02-3423-6963,37.520438,127.055573,2017-11-13
"서울특별시 강남구청","서울특별시 강남구 학동로77길 49 (청담동, 삼환아파트)",서울특별시 강남구 청담동 10 (삼환A 담장),생활방범,4,200,360도전방면,30,2005-07,02-3423-6963,37.521013,127.047339,2017-11-13
"서울특별시 강남구청","서울특별시 강남구 압구정로62길 12 (청담동, 효성빌라)",서울특별시 강남구 청담동 82-7 (효성빌라 2동 담장),생활방범,5,400,360도전방면,30,2004-08,02-3423-6963,37.526276,127.043468,2017-11-13
"서울특별시 강남구청",서울특별시 강남구 선릉로152길 10 (청담동),서울특별시 강남구 청담동 87,생활방범,5,200,360도전방면,30,2004-08,02-3423-6963,37.524070,127.040212,2017-11-13
"서울특별시 강남구청",서울특별시 강남구 도산대로61길 10 (청담동),서울특별시 강남구 청담동 93-3,생활방범,1,41,360도전방면,30,2009-02,02-3423-6963,37.524458,127.042877,2017-11-13
"서울특별시 강남구청",서울특별시 강남구 도산대로67길 15 (청담동),서울특별시 강남구 청담동 94-4,생활방범,1,41,360도전방면,30,2009-02,02-3423-6963,37.524915,127.044417,2017-11-13
"서울특별시 강남구청",서울특별시 강남구 청담동 96-28,서울특별시 강남구 청담동 96-28,생활방범,4,200,360도전방면,30,2004-08,02-3423-6963,37.524860,127.045989,2017-11-13
"서울특별시 강남구청",서울특별시 강남구 압구정로71길 9 (청담동),서울특별시 강남구 청담동 142 (청담초 담장),어린이보호,1,41,360도전방면,30,2009-02,02-3423-6963,37.527286,127.045668,2017-11-13
"서울특별시 강남구청",서울특별시 강남구 논현로124길 12-4 (논현동),서울특별시 강남구 논현동 217-6,생활방범,4,200,360도전방면,30,2015-08,02-3423-6963,37.512398,127.032783,2017-11-13
"서울특별시 강남구청","서울특별시 강남구 봉은사로43길 6-4 (논현동, 이안논현빌라트)",서울특별시 강남구 논현동 277-26,생활방범,4,200,360도전방면,30,2015-08,02-3423-6963,37.509608,127.040002,2017-11-13
"서울특별시 강남구청",서울특별시 강남구 언주로147길 31 (논현동),서울특별시 강남구 논현동 68-3,생활방범,5,200,360도전방면,30,2015-08,02-3423-6963,37.519307,127.031745,2017-11-13
"서울특별시 강남구청",서울특별시 강남구 압구정동 497,서울특별시 강남구 압구정동 497,생활방범,4,200,360도전방면,30,2012-11,02-3423-6963,37.531503,127.037912,2017-11-13
"서울특별시 강남구청",서울특별시 강남구 압구정로 311 (압구정동),서울특별시 강남구 압구정 483 (압구정아람어린이집 앞),어린이보호,4,200,360도전방면,30,2013-12,02-3423-6963,37.529132,127.035532,2017-11-13
"서울특별시 강남구청",서울특별시 강남구 논현로189길 6 (압구정동),서울특별시 강남구 신사동 622,생활방범,5,200,360도전방면,30,2011-12,02-3423-6963,37.526376,127.031548,2017-11-13
"서울특별시 강남구청",서울특별시 강남구 압구정동 479 (현대A3차 61동 주변),서울특별시 강남구 압구정동 479 (현대A3차 61동 주변),생활방범,3,200,360도전방면,30,2014-01,02-3423-6963,37.532734,127.032384,2017-11-13
"서울특별시 강남구청",서울특별시 강남구 선릉로 837 (신사동),서울특별시 강남구 신사동 664-8,생활방범,4,200,360도전방면,30,2014-09,02-3423-6963,37.526941,127.039982,2017-11-13
"서울특별시 강남구청",서울특별시 강남구 논현로160길 18,서울특별시 강남구 압구정동 593-19,생활방범,4,200,360도전방면,30,2014-09,02-3423-6963,37.522634,127.029674,2017-11-13
"서울특별시 강남구청",서울특별시 강남구 논현로160길 25,서울특별시 강남구 압구정동 596-16,생활방범,5,200,360도전방면,30,2014-09,02-3423-6963,37.522603,127.030382,2017-11-13
"서울특별시 강남구청",서울특별시 강남구 논현로164길 33 (신사동),서울특별시 강남구 신사동 595-13,생활방범,4,200,360도전방면,30,2015-02,02-3423-6963,37.522718,127.031342,2017-11-13
"서울특별시 강남구청","서울특별시 강남구 압구정로32길 38 (신사동, 현대맨션)",서울특별시 강남구 신사동 604,생활방범,5,200,360도전방면,30,2015-02,02-3423-6963,37.525431,127.029848,2017-11-13
"서울특별시 강남구청",서울특별시 강남구 압구정로30길 9 (신사동),서울특별시 강남구 신사동 612,생활방범,5,200,360도전방면,30,2015-08,02-3423-6963,37.526896,127.029221,2017-11-13
"서울특별시 강남구청",서울특별시 강남구 압구정로42길 41 (신사동),서울특별시 강남구 신사동 645,생활방범,5,200,360도전방면,30,2015-08,02-3423-6963,37.526241,127.034622,2017-11-13
"서울특별시 강남구청",서울특별시 강남구 도산대로 110,서울특별시 강남구 논현동 2 (신사역1번출구 주변),교통단속,1,41,360도전방면,30,2006-09,02-3423-6963,37.516454,127.020782,2017-11-13
"서울특별시 강남구청",서울특별시 강남구 논현동 22-1 (신동아논현아파트 주변),서울특별시 강남구 논현동 22-1 (신동아논현아파트 주변),교통단속,1,41,360도전방면,30,2006-09,02-3423-6963,37.515205,127.022642,2017-11-13
"서울특별시 강남구청",서울특별시 강남구 학동로 156,서울특별시 강남구 논현동 126-5 (디오스인갤러리 주변),교통단속,1,400,360도전방면,30,2010-01,02-3423-6963,37.512973,127.027904,2017-11-13
"서울특별시 강남구청",서울특별시 강남구 강남대로122길 50 (논현동),서울특별시 강남구 논현동 169 (논현초등학교 정문 주변),어린이보호,1,200,360도전방면,30,2015-12,02-3423-6963,37.508887,127.027004,2017-11-13
"서울특별시 강남구청",서울특별시 강남구 학동로 204,서울특별시 강남구 논현동 207 (학동역3번출구 주변),교통단속,1,41,360도전방면,30,2005-02,02-3423-6963,37.513842,127.031078,2017-11-13
"서울특별시 강남구청",서울특별시 강남구 논현동 208-5 (학동역2번출구 주변),서울특별시 강남구 논현동 208-5 (학동역2번출구 주변),교통단속,1,41,360도전방면,30,2005-02,02-3423-6963,37.514254,127.032201,2017-11-13
"서울특별시 강남구청",서울특별시 강남구 언주로129길 21,서울특별시 강남구 논현동 212 (논현주차장 주변),교통단속,1,200,360도전방면,30,2005-02,02-3423-6963,37.513946,127.033435,2017-11-13
"서울특별시 강남구청",서울특별시 강남구 학동로 226,서울특별시 강남구 논현동 209-2 (학동역1번출구 주변),교통단속,1,41,360도전방면,30,2005-02,02-3423-6963,37.514723,127.033685,2017-11-13
"서울특별시 강남구청",서울특별시 강남구 도산대로 228,서울특별시 강남구 논현동 62 (조일빌딩 주변),교통단속,1,41,360도전방면,30,2005-07,02-3423-6963,37.520688,127.031946,2017-11-13
"서울특별시 강남구청",서울특별시 강남구 논현동 211-14 (강남플라자웨딩 주변),서울특별시 강남구 논현동 211-14 (강남플라자웨딩 주변),교통단속,1,200,360도전방면,30,2005-07,02-3423-6963,37.513196,127.035169,2017-11-13
"서울특별시 강남구청","서울특별시 강남구 개포로 303 (개포동,현대1차아파트)",서울특별시 강남구 개포동 653 (개포현대A 104동쪽 출입구),생활방범,3,200,360도전방면,30,2014-09,02-3423-6963,37.482275,127.053412,2017-11-13
"서울특별시 강남구청",서울특별시 강남구 선릉로 29 (개포동),서울특별시 강남구 개포동 660-10,어린이보호,4,200,360도전방면,30,2015-02,02-3423-6963,37.481835,127.059610,2017-11-13
"서울특별시 강남구청","서울특별시 강남구 언주로6길 21 (개포동,명스튜디오)",서울특별시 강남구 개포동 660-21,생활방범,4,200,360도전방면,30,2015-02,02-3423-6963,37.477309,127.058422,2017-11-13
"서울특별시 강남구청",서울특별시 강남구 선릉로 29 (개포동),서울특별시 강남구 개포동 660-10 (개원초 후문 저수조와 개포주공1단지 26동 쪽 사이 ),생활방범,3,200,360도전방면,30,2015-08,02-3423-6963,37.480673,127.058757,2017-11-13
"서울특별시 강남구청","서울특별시 강남구 개포로 310 (개포동,개포주공1차아파트)",서울특별시 강남구 개포동 660-12 (개포주공1단지 75동 앞길),생활방범,4,200,360도전방면,30,2015-08,02-3423-6963,37.479797,127.057142,2017-11-13
"서울특별시 강남구청",서울특별시 강남구 양재대로 478,서울특별시 강남구 개포동 570 (구룡마을 8지구 구룡산 2호 공영주차장 내),생활방범,3,200,360도전방면,30,2015-08,02-3423-6963,37.477524,127.065706,2017-11-13
"서울특별시 강남구청",서울특별시 강남구 개포동 649-1,서울특별시 강남구 개포동 649-1,생활방범,3,200,360도전방면,30,2015-12,02-3423-6963,37.485808,127.054649,2017-11-13
"서울특별시 강남구청",서울특별시 강남구 개포로 307 (개포동),서울특별시 강남구 개포동 651-1 (개포우성 9차A 입구),생활방범,4,200,360도전방면,30,2015-12,02-3423-6963,37.483979,127.057306,2017-11-13
"서울특별시 강남구청",서울특별시 강남구 선릉로 7 (개포동),서울특별시 강남구 개포동 141 (개포주공1단지 112동 앞),생활방범,4,400,360도전방면,30,2016-07,02-3423-6963,37.478186,127.060220,2017-11-13
"서울특별시 강남구청","서울특별시 강남구 개포로 310 (개포동, 개포주공1차아파트)",서울특별시 강남구 개포동 660-1 (개포1단지 31동~51동 사이),생활방범,4,200,360도전방면,30,2016-12,02-3423-6963,37.479874,127.059281,2017-11-13
"서울특별시 강남구청",서울특별시 강남구 선릉로8길 26 (개포동),서울특별시 강남구 개포동 160-3,생활방범,4,200,360도전방면,30,2005-07,02-3423-6963,37.483668,127.062572,2017-11-13
"서울특별시 강남구청",서울특별시 강남구 선릉로12길 12 (개포동),서울특별시 강남구 개포동 169-3,어린이보호,4,200,360도전방면,30,2008-01,02-3423-6963,37.483644,127.061163,2017-11-13
"서울특별시 강남구청",서울특별시 강남구 선릉로18길 15 (개포동),서울특별시 강남구 개포동 170-12,생활방범,4,200,360도전방면,30,2005-07,02-3423-6963,37.484505,127.061309,2017-11-13
"서울특별시 강남구청",서울특별시 강남구 선릉로18길 8 (개포동),서울특별시 강남구 개포동 172-2,어린이보호,4,200,360도전방면,30,2005-07,02-3423-6963,37.483889,127.059905,2017-11-13
"서울특별시 강남구청",서울특별시 강남구 개포로 402 (개포동),서울특별시 강남구 개포동 173 (개포고 담장),생활방범,1,41,360도전방면,30,2005-07,02-3423-6963,37.484573,127.060091,2017-11-13
"서울특별시 강남구청",서울특별시 강남구 개포로 401 (개포동),서울특별시 강남구 개포동 174 (개일초 정문),어린이보호,1,41,360도전방면,30,2009-02,02-3423-6963,37.485067,127.058019,2017-11-13
"서울특별시 강남구청",서울특별시 강남구 개포로 511 (개포동),서울특별시 강남구 개포동 182 (양전초 뒤 산책로),생활방범,1,41,360도전방면,30,2009-02,02-3423-6963,37.490296,127.068737,2017-11-13
"서울특별시 강남구청",서울특별시 강남구 강남대로 262 (도곡동),서울특별시 강남구 도곡동 949-3,생활방범,4,200,360도전방면,30,2015-02,02-3423-6963,37.487208,127.033646,2017-11-13
"서울특별시 강남구청",서울특별시 강남구 도곡로2길 34 (도곡동),서울특별시 강남구 도곡동 948-30,생활방범,4,200,360도전방면,30,2015-02,02-3423-6963,37.487701,127.034161,2017-11-13
"서울특별시 강남구청","서울특별시 강남구 남부순환로373길 24 (도곡동, 포레스트빌)",서울특별시 강남구 도곡동 193-29 (포레스트빌A 옆편 삼거리),생활방범,4,200,360도전방면,30,2015-08,02-3423-6963,37.487332,127.043729,2017-11-13
"서울특별시 강남구청",서울특별시 강남구 남부순환로365길 43 (도곡동),서울특별시 강남구 도곡동 902-1 (경남A 앞),생활방범,4,200,360도전방면,30,2015-08,02-3423-6963,37.488339,127.040201,2017-11-13
"서울특별시 강남구청",서울특별시 강남구 수서동 199-3(SRT 주차장입구),서울특별시 강남구 수서동 199-3(SRT 주차장입구),생활방범,3,200,360도 전방면,30,2017-06,02-3423-6963,37.485881,127.106247,2017-11-13
"서울특별시 강남구청",서울특별시 강남구 양재대로 781(수서동),서울특별시 강남구 수서동 752(한국지역난방공사 정문 앞),생활방범,3,200,360도 전방면,30,2017-06,02-3423-6963,37.492329,127.094383,2017-11-13
"서울특별시 강남구청",서울특별시 강남구 양재대로 781(수서동),서울특별시 강남구 수서동 752(북단 육교엘리베이터 앞),생활방범,3,200,360도 전방면,30,2017-06,02-3423-6963,37.492555,127.095676,2017-11-13
"서울특별시 강남구청","서울특별시 강남구 광평로34길 35(수서동, 강남더샵포레스트아파트)",서울특별시 강남구 수서동 537 (그린프라자 옆),생활방범,3,200,360도 전방면,30,2017-06,02-3423-6963,37.482456,127.094585,2017-11-13
"서울특별시 강남구청",서울특별시 강남구 밤고개로23길 14-26(율현동),서울특별시 강남구 율현동 201-2,생활방범,4,200,360도 전방면,30,2017-06,02-3423-6963,37.471849,127.108890,2017-11-13
"서울특별시 강남구청",서울특별시 강남구 세곡동 603(화장실 주변),서울특별시 강남구 세곡동 603(화장실 주변),생활방범,3,200,360도 전방면,30,2017-06,02-3423-6963,37.466281,127.094950,2017-11-13
"서울특별시 강남구청",서울특별시 강남구 세곡동 512-10,서울특별시 강남구 세곡동 512-10,생활방범,4,200,360도 전방면,30,2017-06,02-3423-6963,37.470832,127.093075,2017-11-13
"서울특별시 강남구청",서울특별시 강남구 자곡로 204-19(자곡동),서울특별시 강남구 자곡동 663,생활방범,3,200,360도 전방면,30,2017-06,02-3423-6963,37.474010,127.104240,2017-11-13
"서울특별시 강남구청",서울특별시 강남구 밤고개로 254(율현동),서울특별시 강남구 율현동 293,생활방범,4,200,360도 전방면,30,2017-06,02-3423-6963,37.471573,127.106589,2017-11-13
"서울특별시 강남구청",서울특별시 강남구 역삼동 702-1(역삼지하보도 내),서울특별시 강남구 역삼동 702-1(역삼지하보도 내),생활방범,7,200,지하보도 내부,30,2017-06,02-3423-6963,37.502510,127.042772,2017-11-13
"서울특별시 강남구청",서울특별시 강남구 밤고개로21길 15(자곡동),서울특별시 강남구 자곡동 361-2,어린이보호,4,200,360도 전방면,30,2017-06,02-3423-6963,37.474156,127.109270,2017-11-13
"서울특별시 강남구청",서울특별시 강남구 언주로146길 46(논현동),서울특별시 강남구 논현동 100-4,생활방범,4,200,360도 전방면,30,2017-06,02-3423-6963,37.520595,127.038389,2017-11-13
"서울특별시 강남구청",서울특별시 강남구 학동로45길 8(논현동),서울특별시 강남구 논현동 117-8,생활방범,4,200,360도 전방면,30,2017-06,02-3423-6963,37.516864,127.037954,2017-11-13
"서울특별시 강남구청",서울특별시 강남구 도산대로30길 31(논현동),서울특별시 강남구 논현동 73-16,생활방범,4,200,360도 전방면,30,2017-06,02-3423-6963,37.517875,127.030325,2017-11-13
"서울특별시 강남구청",서울특별시 강남구 언주로65길 17(역삼동),서울특별시 강남구 역삼동 783-16,생활방범,4,200,360도 전방면,30,2017-06,02-3423-6963,37.494971,127.044339,2017-11-13
"서울특별시 강남구청","서울특별시 강남구 광평로51길 49(수서동, 주공아파트)",서울특별시 강남구 수서동 707(수서주공1단지 109동 뒤),생활방범,3,200,360도 전방면,30,2017-06,02-3423-6963,37.491310,127.098962,2017-11-13
"서울특별시 강남구청",서울특별시 강남구 자곡로 180(자곡동),서울특별시 강남구 자곡동 651,생활방범,4,200,360도 전방면,30,2017-06,02-3423-6963,37.473169,127.103052,2017-11-13
"서울특별시 강남구청",서울특별시 강남구 헌릉로571길 23-15(세곡동),서울특별시 강남구 세곡동 572,생활방범,4,200,360도 전방면,30,2017-06,02-3423-6963,37.467362,127.100161,2017-11-13
"서울특별시 강남구청",서울특별시 강남구 논현로 172(도곡동),서울특별시 강남구 도곡동 410-9,생활방범,4,200,360도 전방면,30,2017-06,02-3423-6963,37.485049,127.041826,2017-11-13
"서울특별시 강남구청",서울특별시 강남구 논현로71길 29-13(역삼동),서울특별시 강남구 역삼동 792-38,생활방범,3,200,360도 전방면,30,2017-06,02-3423-6963,37.493998,127.036990,2017-11-13
"서울특별시 강남구청",서울특별시 강남구 선릉로68길 15(대치동),서울특별시 강남구 대치동 920-25,어린이보호,4,200,360도 전방면,30,2017-06,02-3423-6963,37.499213,127.053032,2017-11-13
"서울특별시 강남구청",서울특별시 강남구 봉은사로61길 21 (삼성동),서울특별시 강남구 삼성동 40-25,생활방범,3,200,360도전방면,30,2015-02,02-3423-6963,37.512417,127.045866,2017-11-13
"서울특별시 강남구청",서울특별시 강남구 봉은사로73길 35 (삼성동),서울특별시 강남구 삼성동 25-21,생활방범,5,200,360도전방면,30,2015-02,02-3423-6963,37.514834,127.049825,2017-11-13
"서울특별시 강남구청",서울특별시 강남구 테헤란로77길 7 (삼성동),서울특별시 강남구 삼성동 143-28,생활방범,5,200,360도전방면,30,2015-02,02-3423-6963,37.506834,127.054642,2017-11-13
"서울특별시 강남구청",서울특별시 강남구 봉은사로68길 17-9 (삼성동),서울특별시 강남구 삼성동 115-44,생활방범,4,200,360도전방면,30,2015-08,02-3423-6963,37.510698,127.051180,2017-11-13
"서울특별시 강남구청",서울특별시 강남구 선릉로96길 5 (삼성동),서울특별시 강남구 삼성동 140-7,생활방범,4,200,360도전방면,30,2015-08,02-3423-6963,37.506172,127.048795,2017-11-13
"서울특별시 강남구청",서울특별시 강남구 삼성로119길 37-9 (삼성동),서울특별시 강남구 삼성동 26-24,생활방범,4,200,360도전방면,30,2015-08,02-3423-6963,37.515043,127.048559,2017-11-13
"서울특별시 강남구청",서울특별시 강남구 봉은사로68길 17 (삼성동),서울특별시 강남구 삼성동 115-11,생활방범,4,200,360도전방면,30,2015-08,02-3423-6963,37.510775,127.050496,2017-11-13
"서울특별시 강남구청",서울특별시 강남구 선릉로100길 48 (삼성동),서울특별시 강남구 삼성동 142-11,어린이보호,5,200,360도전방면,30,2015-12,02-3423-6963,37.506813,127.051129,2017-11-13
"서울특별시 강남구청",서울특별시 강남구 선릉로112길 21-13 (삼성동),서울특별시 강남구 삼성동 39-15,생활방범,3,200,360도전방면,30,2015-12,02-3423-6963,37.512192,127.045172,2017-11-13
"서울특별시 강남구청",서울특별시 강남구 선릉로116길 39 (삼성동),서울특별시 강남구 삼성동 28 (강남교육지원청 코너),어린이보호,3,200,360도전방면,30,2016-06,02-3423-6963,37.513360,127.046499,2017-11-13
"서울특별시 강남구청",서울특별시 강남구 봉은사로71길 19 (삼성동),서울특별시 강남구 삼성동 47-16,생활방범,5,400,360도전방면,30,2016-07,02-3423-6963,37.513642,127.049683,2017-11-13
"서울특별시 강남구청",서울특별시 강남구 삼성동 116-4,서울특별시 강남구 삼성동 116-4,생활방범,1,200,360도전방면,30,2016-07,02-3423-6963,37.511745,127.051146,2017-11-13
"서울특별시 강남구청",서울특별시 강남구 학동로56길 45 (삼성동),서울특별시 강남구 삼성동 10-6,생활방범,3,400,360도전방면,30,2016-07,02-3423-6963,37.514253,127.043357,2017-11-13
"서울특별시 강남구청",서울특별시 강남구 선릉로120길 15 (삼성동),서울특별시 강남구 삼성동 10-28,생활방범,4,400,360도전방면,30,2016-07,02-3423-6963,37.514034,127.043863,2017-11-13
"서울특별시 강남구청",서울특별시 강남구 봉은사로67길 14,서울특별시 강남구 삼성동 46-8,생활방범,1,200,360도전방면,30,2016-07,02-3423-6963,37.512527,127.048528,2017-11-13
"서울특별시 강남구청",서울특별시 강남구 선릉로120길 4-2,서울특별시 강남구 삼성동 34-6,생활방범,4,200,360도전방면,30,2016-12,02-3423-6963,37.513456,127.043158,2017-11-13
"서울특별시 강남구청",서울특별시 강남구 봉은사로70길 11 (삼성동),서울특별시 강남구 삼성동 115-35,생활방범,3,200,360도전방면,30,2016-12,02-3423-6963,37.511267,127.050696,2017-11-13
"서울특별시 강남구청",서울특별시 강남구 삼성로107길 11,서울특별시 강남구 삼성동 121-22,생활방범,5,200,360도전방면,30,2016-12,02-3423-6963,37.511337,127.052894,2017-11-13
"서울특별시 강남구청",서울특별시 강남구 테헤란로69길 5 (삼성동),서울특별시 강남구 삼성동 142-26,생활방범,4,200,360도전방면,30,2016-12,02-3423-6963,37.506334,127.052512,2017-11-13
"서울특별시 강남구청",서울특별시 강남구 봉은사로68길 55 (삼성동),서울특별시 강남구 삼성동 124-15,생활방범,4,200,360도전방면,30,2016-12,02-3423-6963,37.508792,127.052623,2017-11-13
"서울특별시 강남구청",서울특별시 강남구 삼성로103길 17-5 (삼성동),서울특별시 강남구 삼성동 125-15,생활방범,3,200,360도전방면,30,2016-12,02-3423-6963,37.509643,127.053363,2017-11-13
"서울특별시 강남구청","서울특별시 강남구 삼성로99길 14 (삼성동, 삼성파크아파트)",서울특별시 강남구 삼성동 126 (125-24 건너편),생활방범,4,200,360도전방면,30,2016-12,02-3423-6963,37.509553,127.053825,2017-11-13
"서울특별시 강남구청",서울특별시 강남구 도산대로50길 8 (논현동),서울특별시 강남구 논현동 92-6,생활방범,5,200,360도전방면,30,2015-08,02-3423-6963,37.521752,127.037519,2017-11-13
"서울특별시 강남구청",서울특별시 강남구 언주로148길 14 (논현동),서울특별시 강남구 논현동 98-12,생활방범,5,200,360도전방면,30,2015-08,02-3423-6963,37.520832,127.036703,2017-11-13
"서울특별시 강남구청",서울특별시 강남구 학동로43길 17 (논현동),서울특별시 강남구 논현동 114-24,어린이보호,4,200,360도전방면,30,2015-12,02-3423-6963,37.517116,127.037389,2017-11-13
"서울특별시 강남구청",서울특별시 강남구 언주로 604 (논현동),서울특별시 강남구 논현동 276 (아크로힐스 주변),생활방범,4,200,360도전방면,30,2015-12,02-3423-6963,37.509634,127.037864,2017-11-13
"서울특별시 강남구청",서울특별시 강남구 도산대로54길 50 (논현동),서울특별시 강남구 논현동 104-35,생활방범,4,200,360도전방면,30,2015-12,02-3423-6963,37.519595,127.039426,2017-11-13
"서울특별시 강남구청",서울특별시 강남구 언주로121길 5 (논현동),서울특별시 강남구 논현동 225-2,어린이보호,5,200,360도전방면,30,2016-06,02-3423-6963,37.511502,127.034968,2017-11-13
"서울특별시 강남구청",서울특별시 강남구 논현로120길 20 (논현동),서울특별시 강남구 논현동 222-11,생활방범,4,400,360도전방면,30,2016-07,02-3423-6963,37.511047,127.033860,2017-11-13
"서울특별시 강남구청",서울특별시 강남구 도산대로30길 18 (논현동),서울특별시 강남구 논현동 66-13,생활방범,4,400,360도전방면,30,2016-07,02-3423-6963,37.518793,127.029723,2017-11-13
"서울특별시 강남구청",서울특별시 강남구 선릉로133길 19 (논현동),서울특별시 강남구 논현동 112-10,생활방범,5,400,360도전방면,30,2016-07,02-3423-6963,37.517936,127.039257,2017-11-13
"서울특별시 강남구청",서울특별시 강남구 학동로30길 21 (논현동),서울특별시 강남구 논현동 214-2,생활방범,5,400,360도전방면,30,2016-07,02-3423-6963,37.512402,127.032526,2017-11-13
"서울특별시 강남구청",서울특별시 강남구 봉은사로 333 (논현동),서울특별시 강남구 논현동 278-3,생활방범,5,400,360도전방면,30,2016-07,02-3423-6963,37.510722,127.042715,2017-11-13
"서울특별시 강남구청",서울특별시 강남구 언주로135길 25 (논현동),서울특별시 강남구 논현동 83-26,생활방범,4,400,360도전방면,30,2016-07,02-3423-6963,37.516676,127.033042,2017-11-13
"서울특별시 강남구청",서울특별시 강남구 논현로146길 22 (논현동),서울특별시 강남구 논현동 73-4,생활방범,5,200,360도전방면,30,2016-12,02-3423-6963,37.518376,127.030809,2017-11-13
"서울특별시 강남구청",서울특별시 강남구 논현로126길 15 (논현동),서울특별시 강남구 논현동 213-28,생활방범,4,200,360도전방면,30,2016-12,02-3423-6963,37.513089,127.032823,2017-11-13
"서울특별시 강남구청",서울특별시 강남구 학동로41길 32-7,서울특별시 강남구 논현동 107-8,생활방범,4,200,360도전방면,30,2016-12,02-3423-6963,37.518192,127.036907,2017-11-13
"서울특별시 강남구청",서울특별시 강남구 봉은사로29길 11,서울특별시 강남구 논현동 234-4,생활방범,3,200,360도전방면,30,2016-12,02-3423-6963,37.508407,127.034517,2017-11-13
"서울특별시 강남구청",서울특별시 강남구 봉은사로49길 33 (논현동),서울특별시 강남구 논현동 265-22,어린이보호,4,200,360도전방면,30,2016-12,02-3423-6963,37.511980,127.041444,2017-11-13
"서울특별시 강남구청",서울특별시 강남구 논현로114길 16,서울특별시 강남구 논현동 233-1,생활방범,3,200,360도전방면,30,2016-12,02-3423-6963,37.508758,127.034681,2017-11-13
"서울특별시 강남구청",서울특별시 강남구 삼성로51길 7 (대치동),서울특별시 강남구 대치동 210,생활방범,4,200,360도전방면,30,2004-08,02-3423-6963,37.496631,127.061022,2017-11-13
"서울특별시 강남구청",서울특별시 강남구 대치동 212-1 (한티공원 앞 23-225 버스정류소 근처),서울특별시 강남구 대치동 212-1 (한티공원 앞 23-225 버스정류소 근처),생활방범,2,400,360도전방면,30,2004-08,02-3423-6963,37.496146,127.062303,2017-11-13
"서울특별시 강남구청",서울특별시 강남구 대치동 501 (늘벗공원 양재천로쪽 입구),서울특별시 강남구 대치동 501 (늘벗공원 양재천로쪽 입구),생활방범,3,200,360도전방면,30,2004-08,02-3423-6963,37.489225,127.058086,2017-11-13
"서울특별시 강남구청",서울특별시 강남구 양재천로 321 (대치동),서울특별시 강남구 대치동 502 (대청중 담장),생활방범,3,200,360도전방면,30,2004-08,02-3423-6963,37.489642,127.059460,2017-11-13
"서울특별시 강남구청",서울특별시 강남구 학동로 342,서울특별시 강남구 논현동 241-6 (SK허브 주변),교통단속,2,41,360도전방면,30,2005-07,02-3423-6963,37.516991,127.041041,2017-11-13
"서울특별시 강남구청",서울특별시 강남구 언주로 605,서울특별시 강남구 논현동 237-5 (동광교회 주변),교통단속,1,400,360도전방면,30,2006-09,02-3423-6963,37.509521,127.037404,2017-11-13
"서울특별시 강남구청",서울특별시 강남구 도산대로 234,서울특별시 강남구 논현동 62-7 (마포숯불갈비 주변),교통단속,1,200,360도전방면,30,2007-12,02-3423-6963,37.520968,127.032847,2017-11-13
"서울특별시 강남구청",서울특별시 강남구 학동로 325,서울특별시 강남구 논현동 117-3 (영동한의원 주변),교통단속,1,200,360도전방면,30,2007-12,02-3423-6963,37.516539,127.038589,2017-11-13
"서울특별시 강남구청",서울특별시 강남구 언주로 619,서울특별시 강남구 논현동 225-3 (서울비전 주변),어린이보호,1,41,360도전방면,30,2006-09,02-3423-6963,37.511677,127.035661,2017-11-13
"서울특별시 강남구청",서울특별시 강남구 논현동 98-3 (두산빌딩 주변),서울특별시 강남구 논현동 98-3 (두산빌딩 주변),교통단속,1,200,360도전방면,30,2004-04,02-3423-6963,37.519741,127.034857,2017-11-13
"서울특별시 강남구청",서울특별시 강남구 언주로116길 6,서울특별시 강남구 논현동 275 (논현2동부센트레빌 주변),교통단속,1,41,360도전방면,30,2014-01,02-3423-6963,37.510485,127.037001,2017-11-13
"서울특별시 강남구청",서울특별시 강남구 언주로 634,서울특별시 강남구 논현동 249 (임페리얼팰리스서울 주변),교통단속,1,200,360도전방면,30,2014-09,02-3423-6963,37.513244,127.035633,2017-11-13
"서울특별시 강남구청",서울특별시 강남구 언주로146길 18,서울특별시 강남구 논현동 105,교통단속,1,200,360도전방면,30,2014-12,02-3423-6963,37.520258,127.036910,2017-11-13
"서울특별시 강남구청",서울특별시 강남구 언주로133길 7 (논현동),서울특별시 강남구 논현동 90 (미래산부인과 주변),교통단속,1,200,360도전방면,30,2016-12,02-3423-6963,37.516252,127.034539,2017-11-13
"서울특별시 강남구청",서울특별시 강남구 봉은사로37길 47 (논현동),서울특별시 강남구 논현동 223-18,교통단속,1,200,360도전방면,30,2016-12,02-3423-6963,37.510996,127.035247,2017-11-13
"서울특별시 강남구청",서울특별시 강남구 논현로120길 20 (논현동),서울특별시 강남구 논현동 222-11,교통단속,1,200,360도전방면,30,2016-12,02-3423-6963,37.511032,127.033854,2017-11-13
"서울특별시 강남구청",서울특별시 강남구 대치동 604-1 (하나은행 대치역점 주변),서울특별시 강남구 대치동 604-1 (하나은행 대치역점 주변),교통단속,1,41,360도전방면,30,2005-07,02-3423-6963,37.493808,127.061238,2017-11-13
"서울특별시 강남구청",서울특별시 강남구 남부순환로 2921,서울특별시 강남구 대치동 624 (남서울종합상가 주변),교통단속,1,41,360도전방면,30,2005-07,02-3423-6963,37.493189,127.059897,2017-11-13
"서울특별시 강남구청",서울특별시 강남구 남부순환로 2909,서울특별시 강남구 대치동 651 (KB 도곡역지점 주변),교통단속,1,41,360도전방면,30,2005-07,02-3423-6963,37.492169,127.057685,2017-11-13
"서울특별시 강남구청",서울특별시 강남구 삼성로 237,서울특별시 강남구 대치동 1021-10 (농협 대치1동지점 주변),어린이보호,1,41,360도전방면,30,2005-07,02-3423-6963,37.498307,127.060983,2017-11-13
"서울특별시 강남구청",서울특별시 강남구 도곡로 408,서울특별시 강남구 대치동 1024 (디마크빌딩 주변),교통단속,1,41,360도전방면,30,2005-07,02-3423-6963,37.496793,127.055006,2017-11-13
"서울특별시 강남구청",서울특별시 강남구 도곡로 420,서울특별시 강남구 대치동 1023 (현대자동차 주변),교통단속,1,200,360도전방면,30,2009-02,02-3423-6963,37.497311,127.056572,2017-11-13
"서울특별시 강남구청",서울특별시 강남구 도곡로 450,서울특별시 강남구 대치동 1021-3 (덕산빌딩 주변),교통단속,1,200,360도전방면,30,2014-01,02-3423-6963,37.498350,127.059784,2017-11-13
"서울특별시 강남구청",서울특별시 강남구 도곡로78길 22,서울특별시 강남구 대치동 1014-3,교통단속,1,200,360도전방면,30,2015-08,02-3423-6963,37.495778,127.059228,2017-11-13
"서울특별시 강남구청","서울특별시 강남구 삼성로85길 11 (대치동, 롯데캐슬아파트)",서울특별시 강남구 대치동 893 (롯데캐슬A 103동 담장),생활방범,4,200,360도전방면,30,2004-08,02-3423-6963,37.504326,127.056214,2017-11-13
"서울특별시 강남구청",서울특별시 강남구 남부순환로363길 16 (도곡동),서울특별시 강남구 도곡동 902-2 (언주초 정문 맞은편),어린이보호,4,200,360도전방면,30,2015-08,02-3423-6963,37.486488,127.037986,2017-11-13
"서울특별시 강남구청",서울특별시 강남구 남부순환로357길 6 (도곡동),서울특별시 강남구 도곡동 193-42,생활방범,4,200,360도전방면,30,2015-12,02-3423-6963,37.485448,127.037499,2017-11-13
"서울특별시 강남구청",서울특별시 강남구 도곡동 967-4 (도곡동),서울특별시 강남구 도곡동 963 (역삼럭키A 101동 코너),어린이보호,3,200,360도전방면,30,2016-06,02-3423-6963,37.489606,127.041427,2017-11-13
"서울특별시 강남구청",서울특별시 강남구 남부순환로375길 9 (도곡동),서울특별시 강남구 도곡동 200-22,생활방범,4,400,360도전방면,30,2016-07,02-3423-6963,37.486712,127.044209,2017-11-13
"서울특별시 강남구청",서울특별시 강남구 남부순환로363길 9-4 (도곡동),서울특별시 강남구 도곡동 919-7,생활방범,3,400,360도전방면,30,2016-07,02-3423-6963,37.485714,127.037896,2017-11-13
"서울특별시 강남구청",서울특별시 강남구 언주로 203 (도곡동),서울특별시 강남구 도곡동 966 (매봉삼성@ 후문입구),생활방범,4,400,360도전방면,30,2016-07,02-3423-6963,37.489048,127.049325,2017-11-13
"서울특별시 강남구청",서울특별시 강남구 도곡동 199-5,서울특별시 강남구 도곡동 199-5,생활방범,4,400,360도전방면,30,2016-07,02-3423-6963,37.486077,127.043715,2017-11-13
"서울특별시 강남구청",서울특별시 강남구 남부순환로363길 12-21 (도곡동),서울특별시 강남구 도곡동 902-75,생활방범,3,200,360도전방면,30,2016-12,02-3423-6963,37.486747,127.038249,2017-11-13
"서울특별시 강남구청",서울특별시 강남구 남부순환로 2743 (도곡동),서울특별시 강남구 도곡동 180-1,생활방범,4,200,360도전방면,30,2016-12,02-3423-6963,37.487240,127.045500,2017-11-13
"서울특별시 강남구청",서울특별시 강남구 도곡로 112,서울특별시 강남구 도곡동 943-7,생활방범,4,200,360도전방면,30,2016-12,02-3423-6963,37.489324,127.032800,2017-11-13
"서울특별시 강남구청",서울특별시 강남구 남부순환로370길 9 (도곡동),서울특별시 강남구 도곡동 412-14,생활방범,4,200,360도전방면,30,2009-02,02-3423-6963,37.484815,127.042337,2017-11-13
"서울특별시 강남구청",서울특별시 강남구 도곡동 310 (대도초 정문),서울특별시 강남구 도곡동 310 (대도초 정문),어린이보호,1,41,360도전방면,30,2004-08,02-3423-6963,37.492307,127.054546,2017-11-13
"서울특별시 강남구청",서울특별시 강남구 도곡동 415-3,서울특별시 강남구 도곡동 415-3,어린이보호,1,200,360도전방면,30,2004-08,02-3423-6963,37.484815,127.044665,2017-11-13
"서울특별시 강남구청",서울특별시 강남구 논현로26길 28 (도곡동),서울특별시 강남구 도곡동 452,생활방범,4,200,360도전방면,30,2005-07,02-3423-6963,37.483138,127.044815,2017-11-13
"서울특별시 강남구청",서울특별시 강남구 양재천로 199 (도곡동),서울특별시 강남구 도곡동 459-4,생활방범,4,200,360도전방면,30,2004-08,02-3423-6963,37.483053,127.046596,2017-11-13
"서울특별시 강남구청",서울특별시 강남구 남부순환로378길 29 (도곡동),서울특별시 강남구 도곡동 461 (독골공원 입구),생활방범,4,200,360도전방면,30,2004-08,02-3423-6963,37.485147,127.046242,2017-11-13
"서울특별시 강남구청",서울특별시 강남구 논현로 144 (도곡동),서울특별시 강남구 도곡동 518-13,생활방범,3,200,360도전방면,30,2004-08,02-3423-6963,37.482610,127.042658,2017-11-13
"서울특별시 강남구청",서울특별시 강남구 논현로26길 22 (도곡동),서울특별시 강남구 도곡동 451-2,생활방범,1,200,360도전방면,30,2014-09,02-3423-6963,37.482559,127.044740,2017-11-13
"서울특별시 강남구청","서울특별시 강남구 논현로26길 42-8 (도곡동, 예원아트빌)",서울특별시 강남구 도곡동 456-3,생활방범,1,200,360도전방면,30,2010-09,02-3423-6963,37.483240,127.045856,2017-11-13
"서울특별시 강남구청",서울특별시 강남구 양재천로 199 (도곡동),서울특별시 강남구 도곡동 459-4 (강남구수도사업소 주차장),생활방범,1,200,360도전방면,30,2010-09,02-3423-6963,37.483181,127.047540,2017-11-13
"서울특별시 강남구청",서울특별시 강남구 논현로34길 32 (도곡동),서울특별시 강남구 도곡동 414-15,생활방범,1,200,360도전방면,30,2010-09,02-3423-6963,37.484500,127.044600,2017-11-13
"서울특별시 강남구청",서울특별시 강남구 논현로12길 5(개포동),서울특별시 강남구 개포동 1195-7,생활방범,3,200,360도 전방면,30,2017-06,02-3423-6963,37.474315,127.048732,2017-11-13
"서울특별시 강남구청",서울특별시 강남구 도산대로85길 50-16(청담동),서울특별시 강남구 청담동 109,생활방범,5,200,360도 전방면,30,2017-06,02-3423-6963,37.527345,127.051534,2017-11-13
"서울특별시 강남구청","서울특별시 강남구 강남대로132길 26(논현동, 은탑 논현 드림.홈)",서울특별시 강남구 논현동 53-1,생활방범,5,200,360도 전방면,30,2017-06,02-3423-6963,37.512506,127.022983,2017-11-13
"서울특별시 강남구청",서울특별시 강남구 도산대로8길 17-13(논현동),서울특별시 강남구 논현동 13-26,생활방범,4,200,360도 전방면,30,2017-06,02-3423-6963,37.516103,127.023365,2017-11-13
"서울특별시 강남구청","서울특별시 강남구 논현로124길 28(논현동, 학동아파트)",서울특별시 강남구 논현동 217-34,생활방범,4,200,360도 전방면,30,2017-06,02-3423-6963,37.512731,127.033945,2017-11-13
"서울특별시 강남구청",서울특별시 강남구 봉은사로43길 14(논현동),서울특별시 강남구 논현동 272-31,어린이보호,4,200,360도 전방면,30,2017-06,02-3423-6963,37.510165,127.039566,2017-11-13
"서울특별시 강남구청",서울특별시 강남구 도산대로62길 17(청담동),서울특별시 강남구 청담동 19-4,생활방범,4,200,360도 전방면,30,2017-06,02-3423-6963,37.522288,127.043046,2017-11-13
"서울특별시 강남구청",서울특별시 강남구 논현로153길 46(신사동),서울특별시 강남구 신사동 555-13,생활방범,4,200,360도 전방면,30,2017-06,02-3423-6963,37.520441,127.024360,2017-11-13
"서울특별시 강남구청",서울특별시 강남구 선릉로122길 4(삼성동),서울특별시 강남구 삼성동 9-16,생활방범,3,200,360도 전방면,30,2017-06,02-3423-6963,37.514353,127.042819,2017-11-13
"서울특별시 강남구청",서울특별시 강남구 봉은사로105길 30(삼성동),서울특별시 강남구 삼성동 92,생활방범,5,200,360도 전방면,30,2017-06,02-3423-6963,37.516443,127.061382,2017-11-13
"서울특별시 강남구청",서울특별시 강남구 개포로 257(개포동),서울특별시 강남구 개포동 1262-9,어린이보호,4,200,360도 전방면,30,2017-06,02-3423-6963,37.479489,127.050852,2017-11-13
"서울특별시 강남구청",서울특별시 강남구 자곡동 624,서울특별시 강남구 자곡동 624,생활방범,3,200,360도 전방면,30,2017-06,02-3423-6963,37.469534,127.090934,2017-11-13
"서울특별시 강남구청","서울특별시 강남구 남부순환로373길 3(도곡동, 도곡지웰카운티)",서울특별시 강남구 도곡동 199-4(도곡지웰카운티),생활방범,5,200,360도 전방면,30,2017-06,02-3423-6963,37.486629,127.043372,2017-11-13
"서울특별시 강남구청",서울특별시 강남구 도곡동 산54-1 (양재전화국 교차로),서울특별시 강남구 도곡동 산54-1 (양재전화국 교차로),생활방범,4,200,360도 전방면,30,2017-06,02-3423-6963,37.485785,127.041570,2017-11-13
"서울특별시 강남구청",서울특별시 강남구 논현로63길 30(역삼동),서울특별시 강남구 역삼동 795-26 (역삼마을마당),생활방범,3,200,360도 전방면,30,2017-06,02-3423-6963,37.492384,127.038624,2017-11-13
"서울특별시 강남구청",서울특별시 강남구 도곡동 959-28 (말죽거리 보도육교),서울특별시 강남구 도곡동 959-28 (말죽거리 보도육교),교통단속,1,41,육교감시,30,2017-01,02-3423-6963,37.485196,127.037645,2017-11-13
"서울특별시 강남구청",서울특별시 강남구 논현로159길 57(신사동),서울특별시 강남구 신사동 554,어린이보호,1,200,360도 전방면,30,2017-06,02-3423-6963,37.521495,127.023607,2017-11-13
"서울특별시 강남구청","서울특별시 강남구 도산대로15길 29(신사동, 신사동빌라트1)",서울특별시 강남구 신사동 545-23,어린이보호,1,200,360도 전방면,30,2017-06,02-3423-6963,37.520184,127.023637,2017-11-13
"서울특별시 강남구청","서울특별시 강남구 헌릉로590길 11 (세곡동, 리엔파크3단지)",서울특별시 강남구 세곡동 516,교통단속,1,200,360도 전방면,30,2017-06,02-3423-6963,37.463275,127.103711,2017-11-13
"서울특별시 강남구청",서울특별시 강남구 테헤란로64길 24(대치동),서울특별시 강남구 대치동 897-28 (성결교회 총회본부 주변),교통단속,1,200,360도 전방면,30,2017-06,02-3423-6963,37.503555,127.051529,2017-11-13
"서울특별시 강남구청",서울특별시 강남구 테헤란로 322(역삼동),서울특별시 강남구 역삼동 707-42 (한신인터밸리24빌딩 주변),교통단속,1,200,360도 전방면,30,2017-06,02-3423-6963,37.503007,127.047533,2017-11-13
"서울특별시 강남구청",서울특별시 강남구 테헤란로 326,서울특별시 강남구 역삼동 707-27 (I Tower 주변),교통단속,1,41,360도전방면,30,2005-07,02-3423-6963,37.503721,127.047255,2017-11-13
"서울특별시 강남구청",서울특별시 강남구 역삼동 755-10 (푸르지오 주변),서울특별시 강남구 역삼동 755-10 (푸르지오 주변),어린이보호,2,41,360도전방면,30,2005-07,02-3423-6963,37.500339,127.050763,2017-11-13
"서울특별시 강남구청",서울특별시 강남구 언주로 323,서울특별시 강남구 역삼동 773-8 (유진약국 주변),교통단속,1,200,360도전방면,30,2007-12,02-3423-6963,37.496749,127.045334,2017-11-13
"서울특별시 강남구청",서울특별시 강남구 역삼동 788 (역삼청소년수련관 주변),서울특별시 강남구 역삼동 788 (역삼청소년수련관 주변),교통단속,1,200,360도전방면,30,2007-12,02-3423-6963,37.493449,127.040587,2017-11-13
"서울특별시 강남구청",서울특별시 강남구 언주로86길 12,서울특별시 강남구 역삼동 710 (현대까르띠에아파트 주변),교통단속,1,200,360도전방면,30,2009-02,02-3423-6963,37.501594,127.044351,2017-11-13
"서울특별시 강남구청",서울특별시 강남구 언주로85길 23-11,서울특별시 강남구 역삼동 722-9 (역삼2동성당 주변),교통단속,1,400,360도전방면,30,2010-01,02-3423-6963,37.500955,127.041796,2017-11-13
"서울특별시 강남구청",서울특별시 강남구 선릉로 423,서울특별시 강남구 역삼동 716 (센트레빌아파트 주변),교통단속,1,41,360도전방면,30,2011-01,02-3423-6963,37.502841,127.049645,2017-11-13
"서울특별시 강남구청",서울특별시 강남구 선릉로69길 20,서울특별시 강남구 역삼동 755-4 (역삼e-편한세상A 주변),교통단속,1,41,360도전방면,30,2014-01,02-3423-6963,37.498556,127.050786,2017-11-13
"서울특별시 강남구청",서울특별시 강남구 도곡로43길 25,서울특별시 강남구 역삼동 761-26,교통단속,1,200,360도전방면,30,2015-08,02-3423-6963,37.495864,127.047138,2017-11-13
"서울특별시 강남구청",서울특별시 강남구 역삼동 783-21 (역삼동),서울특별시 강남구 역삼동 783-21 (강남세브란스병원 교수연구동 주변),어린이보호,1,400,360도전방면,30,2016-06,02-3423-6963,37.494442,127.044704,2017-11-13
"서울특별시 강남구청",서울특별시 강남구 봉은사로 463 (삼성동),서울특별시 강남구 삼성동 49-9,생활방범,5,200,360도전방면,30,2016-12,02-3423-6963,37.512540,127.050215,2017-11-13
"서울특별시 강남구청",서울특별시 강남구 일원로5길 90 (일원동),서울특별시 강남구 일원동 643,생활방범,4,200,360도전방면,30,2011-12,02-3423-6963,37.492902,127.086637,2017-11-13
"서울특별시 강남구청",서울특별시 강남구 양재대로39길 15 (일원동),서울특별시 강남구 일원동 672-2,생활방범,1,200,360도전방면,30,2011-12,02-3423-6963,37.490745,127.084138,2017-11-13
"서울특별시 강남구청",서울특별시 강남구 개포로130길 22 (일원동),서울특별시 강남구 일원동 629-9,생활방범,4,200,360도전방면,30,2011-12,02-3423-6963,37.493833,127.084173,2017-11-13
"서울특별시 강남구청",서울특별시 강남구 일원동 711-2 (일원1동주민센터앞삼거리 지하보도),서울특별시 강남구 일원동 711-2 (일원1동주민센터앞삼거리 지하보도),생활방범,4,200,360도전방면,30,2005-07,02-3423-6963,37.490686,127.088251,2017-11-13
"서울특별시 강남구청",서울특별시 강남구 일원동 711-3 (대청초 뒷편),서울특별시 강남구 일원동 711-3 (대청초 뒷편),어린이보호,4,200,360도전방면,30,2005-07,02-3423-6963,37.493315,127.087028,2017-11-13
"서울특별시 강남구청",서울특별시 강남구 일원동 712-4 (하늘빛 유치원 뒤 대청초 담장),서울특별시 강남구 일원동 712-4 (하늘빛 유치원 뒤 대청초 담장),어린이보호,1,41,360도전방면,30,2009-02,02-3423-6963,37.492327,127.088066,2017-11-13
"서울특별시 강남구청",서울특별시 강남구 개포로 668 (일원동),서울특별시 강남구 일원동 639-6,생활방범,4,200,360도전방면,30,2012-11,02-3423-6963,37.495172,127.085515,2017-11-13
"서울특별시 강남구청",서울특별시 강남구 개포로116길 21 (일원동),서울특별시 강남구 일원동 621 (대청공원 화장실 앞),생활방범,4,200,360도전방면,30,2012-11,02-3423-6963,37.492262,127.082975,2017-11-13
"서울특별시 강남구청",서울특별시 강남구 일원동 712-4 (일원까치공원 내),서울특별시 강남구 일원동 712-4 (일원까치공원 내),생활방범,3,200,360도전방면,30,2015-12,02-3423-6963,37.491874,127.088220,2017-11-13
"서울특별시 강남구청",서울특별시 강남구 양재대로37길 18 (일원동),서울특별시 강남구 일원동 672 (대청어린이집 앞),어린이보호,5,200,360도전방면,30,2013-12,02-3423-6963,37.490774,127.083718,2017-11-13
"서울특별시 강남구청",서울특별시 강남구 일원로3길 81 (일원동),서울특별시 강남구 일원동 636-12 (하나어린이집 앞),어린이보호,4,200,360도전방면,30,2013-12,02-3423-6963,37.493149,127.085906,2017-11-13
"서울특별시 강남구청",서울특별시 강남구 일원로9길 48 (일원동),서울특별시 강남구 일원동 645,생활방범,1,41,360도전방면,30,2014-01,02-3423-6963,37.490001,127.085885,2017-11-13
"서울특별시 강남구청",서울특별시 강남구 일원로3길 32 (일원동),서울특별시 강남구 일원동 677-5,어린이보호,3,200,360도전방면,30,2015-12,02-3423-6963,37.491947,127.082904,2017-11-13
"서울특별시 강남구청",서울특별시 강남구 양재대로47길 28 (일원동),서울특별시 강남구 일원동 655-4,생활방범,3,200,360도전방면,30,2014-09,02-3423-6963,37.491965,127.085998,2017-11-13
"서울특별시 강남구청",서울특별시 강남구 일원로 35 (일원동),서울특별시 강남구 일원동 684,생활방범,4,200,360도전방면,30,2014-09,02-3423-6963,37.490792,127.081281,2017-11-13
"서울특별시 강남구청",서울특별시 강남구 일원로5길 68 (일원동),서울특별시 강남구 일원동 655,생활방범,5,200,360도전방면,30,2015-02,02-3423-6963,37.492472,127.085493,2017-11-13
"서울특별시 강남구청",서울특별시 강남구 양재대로29길 6 (일원동),서울특별시 강남구 일원동 686-8,생활방범,4,200,360도전방면,30,2015-02,02-3423-6963,37.489579,127.082346,2017-11-13
"서울특별시 강남구청",서울특별시 강남구 개포로128길 6 (일원동),서울특별시 강남구 일원동 625-4,생활방범,4,200,360도전방면,30,2015-08,02-3423-6963,37.494514,127.083412,2017-11-13
"서울특별시 강남구청",서울특별시 강남구 개포로140길 14 (일원동),서울특별시 강남구 일원동 640-4,생활방범,3,200,360도전방면,30,2015-08,02-3423-6963,37.495624,127.085769,2017-11-13
"서울특별시 강남구청",서울특별시 강남구 양재대로41길 18,서울특별시 강남구 일원동 665,생활방범,5,400,360도전방면,30,2016-07,02-3423-6963,37.491096,127.084579,2017-11-13
"서울특별시 강남구청",서울특별시 강남구 양재천로 363 (대치동),서울특별시 강남구 대치동 505 (대치초 정문 건너),어린이보호,4,41,360도전방면,30,2004-08,02-3423-6963,37.490528,127.061509,2017-11-13
"서울특별시 강남구청","서울특별시 강남구 삼성로 151 (대치동, 선경아파트)",서울특별시 강남구 대치동 506 (선경A 10동 쪽 입구),생활방범,4,41,360도전방면,30,2004-08,02-3423-6963,37.491771,127.064288,2017-11-13
"서울특별시 강남구청",서울특별시 강남구 대치동 212-6 (한티공원 담장 코너),서울특별시 강남구 대치동 212-6 (한티공원 담장 코너),생활방범,3,200,360도전방면,30,2004-08,02-3423-6963,37.494831,127.061906,2017-11-13
"서울특별시 강남구청","서울특별시 강남구 삼성로51길 37 (대치동, 래미안대치팰리스아파트(1단지))",서울특별시 강남구 대치동 633,생활방범,4,400,360도전방면,30,2004-08,02-3423-6963,37.494153,127.060356,2017-11-13
"서울특별시 강남구청",서울특별시 강남구 남부순환로397길 57 (대치동),서울특별시 강남구 대치동 629-1,생활방범,3,200,360도전방면,30,2009-02,02-3423-6963,37.493009,127.057893,2017-11-13
"서울특별시 강남구청",서울특별시 강남구 밤고개로1길 52,서울특별시 강남구 수서동 718 (육교아래 횡단보도),생활방범,4,400,360도전방면,30,2016-07,02-3423-6963,37.488597,127.105811,2017-11-13
"서울특별시 강남구청",서울특별시 강남구 광평로 280,서울특별시 강남구 수서동 724 (수서역4번출구 앞),생활방범,3,400,360도전방면,30,2016-07,02-3423-6963,37.486889,127.102682,2017-11-13
"서울특별시 강남구청",서울특별시 강남구 도산대로 107 (신사동),서울특별시 강남구 신사동 501-2,생활방범,4,200,360도전방면,30,2004-08,02-3423-6963,37.517013,127.020145,2017-11-13
"서울특별시 강남구청",서울특별시 강남구 강남대로 648 (신사동),서울특별시 강남구 신사동 504-11,생활방범,1,200,360도전방면,30,2004-08,02-3423-6963,37.519166,127.019468,2017-11-13
"서울특별시 강남구청",서울특별시 강남구 도산대로1길 62 (신사동),서울특별시 강남구 신사동 506,생활방범,4,200,360도전방면,30,2008-01,02-3423-6963,37.521063,127.019430,2017-11-13
"서울특별시 강남구청",서울특별시 강남구 압구정로2길 59 (신사동),서울특별시 강남구 신사동 515,생활방범,5,200,360도전방면,30,2009-02,02-3423-6963,37.518106,127.021442,2017-11-13
"서울특별시 강남구청",서울특별시 강남구 강남대로162길 36 (신사동),서울특별시 강남구 신사동 520,생활방범,1,41,360도전방면,30,2004-08,02-3423-6963,37.520574,127.021260,2017-11-13
"서울특별시 강남구청",서울특별시 강남구 압구정로10길 44 (신사동),서울특별시 강남구 신사동 520-9,생활방범,5,400,360도전방면,30,2005-07,02-3423-6963,37.520446,127.022139,2017-11-13
"서울특별시 강남구청",서울특별시 강남구 압구정로4길 15 (신사동),서울특별시 강남구 신사동 523-34,생활방범,1,41,360도전방면,30,2004-08,02-3423-6963,37.521689,127.020251,2017-11-13
"서울특별시 강남구청",서울특별시 강남구 강남대로162길 41-12 (신사동),서울특별시 강남구 신사동 524-6,생활방범,1,41,360도전방면,30,2008-01,02-3423-6963,37.521518,127.021313,2017-11-13
"서울특별시 강남구청",서울특별시 강남구 압구정로10길 32 (신사동),서울특별시 강남구 신사동 524-17,어린이보호,1,200,360도전방면,30,2008-01,02-3423-6963,37.521659,127.021946,2017-11-13
"서울특별시 강남구청",서울특별시 강남구 도산대로 139 (신사동),서울특별시 강남구 신사동 538-1,생활방범,4,400,360도전방면,30,2009-02,02-3423-6963,37.518659,127.023963,2017-11-13
"서울특별시 강남구청","서울특별시 강남구 도산대로15길 29 (신사동, 신사동빌라트1)",서울특별시 강남구 신사동 545-23,생활방범,5,200,360도전방면,30,2004-08,02-3423-6963,37.520106,127.023674,2017-11-13
"서울특별시 강남구청",서울특별시 강남구 압구정로18길 25 (신사동),서울특별시 강남구 신사동 568-24 (신구초 정문 건너 GS슈퍼마켓 앞),어린이보호,5,400,360도전방면,30,2004-08,02-3423-6963,37.523156,127.025358,2017-11-13
"서울특별시 강남구청",서울특별시 강남구 압구정로18길 28 (신사동),서울특별시 강남구 신사동 550-19 (신구초 담장),어린이보호,1,41,360도전방면,30,2009-02,02-3423-6963,37.523858,127.024720,2017-11-13
"서울특별시 강남구청",서울특별시 강남구 압구정로18길 28 (신사동),서울특별시 강남구 신사동 550-22 (신구초 담장),어린이보호,4,400,360도전방면,30,2005-07,02-3423-6963,37.523181,127.023305,2017-11-13
"서울특별시 강남구청",서울특별시 강남구 선릉로76길 11 (대치동),서울특별시 강남구 대치동 899-25 (대치은행나무공원 코너),생활방범,3,200,360도전방면,30,2004-08,02-3423-6963,37.501915,127.051354,2017-11-13
"서울특별시 강남구청",서울특별시 강남구 역삼로67길 26 (대치동),서울특별시 강남구 대치동 900-26,생활방범,1,41,360도전방면,30,2008-01,02-3423-6963,37.503106,127.052647,2017-11-13
"서울특별시 강남구청",서울특별시 강남구 테헤란로68길 46 (대치동),서울특별시 강남구 대치동 900-39,생활방범,1,41,360도전방면,30,2004-08,02-3423-6963,37.502144,127.053419,2017-11-13
"서울특별시 강남구청",서울특별시 강남구 삼성로75길 35 (대치동),서울특별시 강남구 대치동 904,생활방범,4,200,360도전방면,30,2004-08,02-3423-6963,37.502728,127.055377,2017-11-13
"서울특별시 강남구청",서울특별시 강남구 역삼로69길 10 (대치동),서울특별시 강남구 대치동 905,생활방범,1,41,360도전방면,30,2005-07,02-3423-6963,37.502264,127.053945,2017-11-13
"서울특별시 강남구청",서울특별시 강남구 삼성로71길 6 (대치동),서울특별시 강남구 대치동 912-25,생활방범,1,41,360도전방면,30,2004-08,02-3423-6963,37.502249,127.058376,2017-11-13
"서울특별시 강남구청",서울특별시 강남구 삼성로69길 11 (대치동),서울특별시 강남구 대치동 913-25,생활방범,1,41,360도전방면,30,2004-08,02-3423-6963,37.501542,127.058269,2017-11-13
"서울특별시 강남구청",서울특별시 강남구 삼성로67길 22 (대치동),서울특별시 강남구 대치동 915-21,생활방범,4,200,360도전방면,30,2004-08,02-3423-6963,37.500674,127.057668,2017-11-13
"서울특별시 강남구청",서울특별시 강남구 삼성로71길 31 (대치동),서울특별시 강남구 대치동 916-23,어린이보호,4,400,360도전방면,30,2004-08,02-3423-6963,37.501506,127.056273,2017-11-13
"서울특별시 강남구청","서울특별시 강남구 선릉로72길 48 (대치동, 대치빌딩)",서울특별시 강남구 대치동 917-4,생활방범,4,200,360도전방면,30,2004-08,02-3423-6963,37.501140,127.055152,2017-11-13
"서울특별시 강남구청",서울특별시 강남구 역삼로70길 19-9 (대치동),서울특별시 강남구 대치동 918-11,생활방범,1,41,360도전방면,30,2005-07,02-3423-6963,37.500323,127.054487,2017-11-13
"서울특별시 강남구청",서울특별시 강남구 선릉로72길 20 (대치동),서울특별시 강남구 대치동 920-8,생활방범,1,41,360도전방면,30,2004-08,02-3423-6963,37.500417,127.052910,2017-11-13
"서울특별시 강남구청",서울특별시 강남구 삼성로67길 53 (대치동),서울특별시 강남구 대치동 925,어린이보호,1,41,360도전방면,30,2008-01,02-3423-6963,37.499821,127.055125,2017-11-13
"서울특별시 강남구청","서울특별시 강남구 삼성로67길 49 (대치동, 오성빌라)",서울특별시 강남구 대치동 925-2,생활방범,4,200,360도전방면,30,2004-08,02-3423-6963,37.499970,127.055672,2017-11-13
"서울특별시 강남구청",서울특별시 강남구 도곡로77길 22 (대치동),서울특별시 강남구 대치동 928-23 (대치목련공원 코너),생활방범,5,200,360도전방면,30,2009-02,02-3423-6963,37.499539,127.058198,2017-11-13
"서울특별시 강남구청",서울특별시 강남구 삼성로 315 (대치동),서울특별시 강남구 대치동 932-38,생활방범,5,400,360도전방면,30,2004-08,02-3423-6963,37.499953,127.059776,2017-11-13
"서울특별시 강남구청","서울특별시 강남구 삼성로63길 31 (대치동 ,효성빌라)",서울특별시 강남구 대치동 933-5,생활방범,1,41,360도전방면,30,2004-08,02-3423-6963,37.499259,127.057582,2017-11-13
"서울특별시 강남구청",서울특별시 강남구 삼성로61길 26 (대치동),서울특별시 강남구 대치동 933-15,생활방범,1,200,360도전방면,30,2004-08,02-3423-6963,37.499218,127.058226,2017-11-13
"서울특별시 강남구청",서울특별시 강남구 삼성로63길 53 (대치동),서울특별시 강남구 대치동 934,어린이보호,4,200,360도전방면,30,2004-08,02-3423-6963,37.498642,127.055667,2017-11-13
"서울특별시 강남구청",서울특별시 강남구 도곡로69길 10 (대치동),서울특별시 강남구 대치동 939,생활방범,4,200,360도전방면,30,2008-01,02-3423-6963,37.497995,127.056059,2017-11-13
"서울특별시 강남구청",서울특별시 강남구 삼성로75길 32-10 (대치동),서울특별시 강남구 대치동 901-54,생활방범,1,200,360도전방면,30,2010-09,02-3423-6963,37.503421,127.055399,2017-11-13
"서울특별시 강남구청",서울특별시 강남구 삼성로67길 8 (대치동),서울특별시 강남구 대치동 913-21,생활방범,1,200,360도전방면,30,2010-09,02-3423-6963,37.501149,127.058811,2017-11-13
"서울특별시 강남구청",서울특별시 강남구 선릉로 217 (도곡동),서울특별시 강남구 도곡동 527-6 (도곡어린이집 앞),어린이보호,3,200,360도전방면,30,2014-01,02-3423-6963,37.494256,127.053731,2017-11-13
"서울특별시 강남구청",서울특별시 강남구 논현로30길 25 (도곡동),서울특별시 강남구 도곡동 515-12 (성아어린이집 앞),어린이보호,3,200,360도전방면,30,2014-01,02-3423-6963,37.484219,127.043839,2017-11-13
"서울특별시 강남구청",서울특별시 강남구 논현로26길 34 (도곡동),서울특별시 강남구 도곡동 455 (도곡까치공원 내),생활방범,3,200,360도전방면,30,2014-01,02-3423-6963,37.482815,127.045137,2017-11-13
"서울특별시 강남구청","서울특별시 강남구 남부순환로370길 21 (도곡동, 도곡현대연립)",서울특별시 강남구 도곡동 516-1 (현대맨션 앞),생활방범,5,200,360도전방면,30,2014-02,02-3423-6963,37.483947,127.042766,2017-11-13
"서울특별시 강남구청",서울특별시 강남구 테헤란로6길 29 (역삼동),서울특별시 강남구 역삼동 827-53,생활방범,1,200,360도전방면,30,2011-04,02-3423-6963,37.496728,127.031197,2017-11-13
"서울특별시 강남구청","서울특별시 강남구 테헤란로5길 36 (역삼동,풍림지오빌)",서울특별시 강남구 역삼동 635-5,생활방범,3,200,360도전방면,30,2012-11,02-3423-6963,37.500773,127.028920,2017-11-13
"서울특별시 강남구청",서울특별시 강남구 강남대로110길 40 (역삼동),서울특별시 강남구 역삼동 616-8,생활방범,3,200,360도전방면,30,2012-11,02-3423-6963,37.503985,127.028150,2017-11-13
"서울특별시 강남구청",서울특별시 강남구 언주로107길 33 (역삼동),서울특별시 강남구 역삼동 658-8,생활방범,3,200,360도전방면,30,2012-11,02-3423-6963,37.507130,127.036377,2017-11-13
"서울특별시 강남구청",서울특별시 강남구 역삼로11길 9-7 (역삼동),서울특별시 강남구 역삼동 752-11,생활방범,3,200,360도전방면,30,2012-11,02-3423-6963,37.495254,127.034673,2017-11-13
"서울특별시 강남구청",서울특별시 강남구 언주로103길 40 (역삼동),서울특별시 강남구 역삼동 657-27 (참사랑어린이집 앞),어린이보호,3,200,360도전방면,30,2012-12,02-3423-6963,37.505911,127.036724,2017-11-13
"서울특별시 강남구청",서울특별시 강남구 역삼동 824-10 (역삼까치공원 코너),서울특별시 강남구 역삼동 824-10 (역삼까치공원 코너),생활방범,4,200,360도전방면,30,2014-01,02-3423-6963,37.497091,127.030939,2017-11-13
"서울특별시 강남구청",서울특별시 강남구 논현로98길 26-8 (역삼동),서울특별시 강남구 역삼동 670-11,생활방범,5,200,360도전방면,30,2014-02,02-3423-6963,37.503467,127.038038,2017-11-13
"서울특별시 강남구청","서울특별시 강남구 논현로71길 48 (역삼동, 지석천평대아파트)",서울특별시 강남구 역삼동 789-29,생활방범,3,200,360도전방면,30,2014-01,02-3423-6963,37.494001,127.035684,2017-11-13
"서울특별시 강남구청",서울특별시 강남구 강남대로 406,서울특별시 강남구 역삼동 820-9 (강남역),생활방범,1,200,360도전방면,30,2013-05,02-3423-6963,37.498657,127.027413,2017-11-13
"서울특별시 강남구청",서울특별시 강남구 강남대로 406,서울특별시 강남구 역삼동 820-9 (강남역),생활방범,1,200,360도전방면,30,2013-05,02-3423-6963,37.498657,127.027413,2017-11-13
"서울특별시 강남구청","서울특별시 강남구 논현로67길 31 (역삼동, 이니그마빌)",서울특별시 강남구 역삼동 794-4,생활방범,4,200,360도전방면,30,2014-09,02-3423-6963,37.493575,127.037513,2017-11-13
"서울특별시 강남구청",서울특별시 강남구 테헤란로53길 57-9 (역삼동),서울특별시 강남구 역삼동 698-3,생활방범,4,200,360도전방면,30,2014-09,02-3423-6963,37.506540,127.043766,2017-11-13
"서울특별시 강남구청",서울특별시 강남구 테헤란로53길 60 (역삼동),서울특별시 강남구 역삼동 693-6,생활방범,4,200,360도전방면,30,2014-09,02-3423-6963,37.507203,127.044003,2017-11-13
"서울특별시 강남구청",서울특별시 강남구 역삼로9길 15 (역삼동),서울특별시 강남구 역삼동 753-5,생활방범,4,200,360도전방면,30,2014-09,02-3423-6963,37.495158,127.033732,2017-11-13
"서울특별시 강남구청","서울특별시 강남구 역삼로14길 6-5 (역삼동, 수정빌)",서울특별시 강남구 역삼동 834-53,생활방범,3,200,360도전방면,30,2015-02,02-3423-6963,37.493962,127.034915,2017-11-13
"서울특별시 강남구청",서울특별시 강남구 역삼동 796-30,서울특별시 강남구 역삼동 796-30,생활방범,5,200,360도전방면,30,2015-02,02-3423-6963,37.493211,127.039474,2017-11-13
"서울특별시 강남구청",서울특별시 강남구 강남대로 240(도곡동),서울특별시 강남구 도곡동 953-1 (양재SK허브프리모빌딩 주변),교통단속,1,200,360도 전방면,30,2017-06,02-3423-6963,37.485278,127.034631,2017-11-13
"서울특별시 강남구청","서울특별시 강남구 광평로10길 6(일원동, 한솔마을아파트)",서울특별시 강남구 일원동 731,교통단속,1,200,360도 전방면,30,2017-06,02-3423-6963,37.482590,127.079880,2017-11-13
"서울특별시 강남구청",서울특별시 강남구 도산대로67길 19(청담동),서울특별시 강남구 청담동 94-6 (힐탑빌딩 주변),교통단속,1,200,360도 전방면,30,2017-06,02-3423-6963,37.525457,127.044417,2017-11-13
"서울특별시 강남구청","서울특별시 강남구 압구정로62길 17-4(청담동, 이니그마빌)",서울특별시 강남구 청담동 94 (이니그마빌 주변),교통단속,1,200,360도 전방면,30,2017-06,02-3423-6963,37.525669,127.043343,2017-11-13
"서울특별시 강남구청",서울특별시 강남구 테헤란로69길 5(삼성동),서울특별시 강남구 삼성동 142-26 (유기타워 주변),교통단속,1,200,360도 전방면,30,2017-06,02-3423-6963,37.506330,127.052519,2017-11-13
"서울특별시 강남구청",서울특별시 강남구 강남대로 320(역삼동),서울특별시 강남구 역삼동 832-7,교통단속,1,200,360도 전방면,30,2017-06,02-3423-6963,37.491684,127.030863,2017-11-13
"서울특별시 강남구청",서울특별시 강남구 역삼로 310(역삼동),서울특별시 강남구 역삼동 755 (이마트 역삼지점 주변),어린이보호,1,200,360도 전방면,30,2017-06,02-3423-6963,37.499448,127.047839,2017-11-13
"서울특별시 강남구청",서울특별시 강남구 테헤란로 115(역삼동),서울특별시 강남구 역삼동 649-10 (서림빌딩 주변),교통단속,1,200,360도 전방면,30,2017-06,02-3423-6963,37.499148,127.029728,2017-11-13
"서울특별시 강남구청",서울특별시 강남구 테헤란로34길 7(역삼동),서울특별시 강남구 역삼동 719-9,교통단속,1,200,360도 전방면,30,2017-06,02-3423-6963,37.501015,127.040258,2017-11-13
"서울특별시 강남구청",서울특별시 강남구 수서동 596 (수서동성당 주변),서울특별시 강남구 수서동 596 (수서동성당 주변),교통단속,4,200,360도 전방면,30,2017-06,02-3423-6963,37.484283,127.094624,2017-11-13
"서울특별시 강남구청","서울특별시 강남구 삼성로51길 37(대치동, 래미안 대치 팰리스(1단지))",서울특별시 강남구 대치동 1027(대치래미안팰리스1단지@ 정문 주변),교통단속,1,200,360도 전방면,30,2017-06,02-3423-6963,37.493597,127.059075,2017-11-13
"서울특별시 강남구청",서울특별시 강남구 학동로81길 7(청담동),서울특별시 강남구 청담동 76-11 (청담영양센터 주변),교통단속,1,200,360도 전방면,30,2017-06,02-3423-6963,37.519586,127.050811,2017-11-13
"서울특별시 강남구청",서울특별시 강남구 밤고개로21길 15(자곡동),서울특별시 강남구 자곡동 361-2 (율현초교 정문 주변),어린이보호,1,200,360도 전방면,30,2017-06,02-3423-6963,37.474146,127.109280,2017-11-13
"서울특별시 강남구청","서울특별시 강남구 자곡로3길 21(자곡동, LH강남힐스테이트)",서울특별시 강남구 자곡동 619 (강남LH5단지@ 상가 주변),어린이보호,1,200,360도 전방면,30,2017-06,02-3423-6963,37.471703,127.090069,2017-11-13
"서울특별시 강남구청",서울특별시 강남구 도산대로 442(청담동),서울특별시 강남구 청담동 4-9 (피앤폴루스 뒷길 주변),교통단속,1,200,360도 전방면,30,2017-06,02-3423-6963,37.523132,127.044694,2017-11-13
"서울특별시 강남구청",서울특별시 강남구 압구정동 390 (신사나들목 방류),서울특별시 강남구 압구정동 390 (신사나들목 방류),재난재해,1,200,신사나들목,30,2017-05,02-3423-6963,37.527532,127.021502,2017-11-13
"서울특별시 강남구청",서울특별시 강남구 개포동 306-11 영동6교 주변 산책로,서울특별시 강남구 개포동 306-11 영동6교 주변 산책로,재난재해,1,200,360도 전방면,30,2017-07,02-3423-6963,37.493484,127.072248,2017-11-13
"서울특별시 강남구청",서울특별시 강남구 청담동 신청담나들목,서울특별시 강남구 청담동 신청담나들목,재난재해,1,200,360도 전방면,30,2017-07,02-3423-6963,37.528112,127.051618,2017-11-13
"서울특별시 강남구청",서울특별시 강남구 언주로 118 (도곡동),서울특별시 강남구 도곡동 467-24 (우성캐릭터119앞 화단),생활방범,2,400,우성아파트 화단,30,2016-07,02-3423-6963,37.487160,127.052032,2017-11-13
"서울특별시 강남구청",서울특별시 강남구 개포로 31길48(개포동),서울특별시 강남구 개포동 1266,생활방범,1,200,360도 전방면,30,,02-3423-6964,37.481645,127.049328,2017-11-13
"서울특별시 강남구청",서울특별시 강남구 언주로86길 12 (역삼동),서울특별시 강남구 역삼동 707-12 (테헤란아이파크A상가 주변),교통단속,1,200,360도전방면,30,2016-12,02-3423-6963,37.502181,127.044820,2017-11-13
"서울특별시 강남구청",서울특별시 강남구 일원로3길 46,서울특별시 강남구 일원동 663-3 (일원치안센터 주변),어린이보호,1,200,360도전방면,30,2011-01,02-3423-6963,37.492294,127.083681,2017-11-13
"서울특별시 강남구청",서울특별시 강남구 양재대로55길 11,서울특별시 강남구 일원동 644-3 (일원1동주민센터 주변),어린이보호,1,400,360도전방면,30,2010-01,02-3423-6963,37.491491,127.087817,2017-11-13
"서울특별시 강남구청",서울특별시 강남구 일원동 701-2 (대청초등학교 주변),서울특별시 강남구 일원동 701-2 (대청초등학교 주변),어린이보호,1,400,360도전방면,30,2004-04,02-3423-6963,37.493490,127.087064,2017-11-13
"서울특별시 강남구청",서울특별시 강남구 일원로 53,서울특별시 강남구 일원동 687 (삼성의료원앞 주변),교통단속,1,200,360도전방면,30,2014-01,02-3423-6963,37.489109,127.081801,2017-11-13
"서울특별시 강남구청",서울특별시 강남구 일원동 690-2 (현대사원아파트 주변),서울특별시 강남구 일원동 690-2 (현대사원아파트 주변),어린이보호,1,400,360도전방면,30,2005-07,02-3423-6963,37.490884,127.080688,2017-11-13
"서울특별시 강남구청",서울특별시 강남구 개포로110길 15,서울특별시 강남구 일원동 615 (석탑상가 주변),어린이보호,1,200,360도전방면,30,2009-02,02-3423-6963,37.492454,127.076439,2017-11-13
"서울특별시 강남구청",서울특별시 강남구 개포로109길 62,서울특별시 강남구 개포동 13-1 (대진공원옆-LG자이 사잇길),어린이보호,1,200,360도전방면,30,2015-08,02-3423-6963,37.494872,127.078394,2017-11-13
"서울특별시 강남구청",서울특별시 강남구 일원동 700-6 (마루공원 주차정산입구 횡단보도),서울특별시 강남구 일원동 700-6 (마루공원 주차정산입구 횡단보도),교통단속,1,200,360도전방면,30,2014-01,02-3423-6963,37.494706,127.082449,2017-11-13
"서울특별시 강남구청",서울특별시 강남구 일원동 18-11 (대한도시가스본사 주변),서울특별시 강남구 일원동 18-11 (대한도시가스본사 주변),교통단속,1,200,360도전방면,30,2011-01,02-3423-6963,37.497987,127.074348,2017-11-13
"서울특별시 강남구청",서울특별시 강남구 일원동 27-1,서울특별시 강남구 일원동 27-1,교통단속,1,200,360도전방면,30,2015-08,02-3423-6963,37.498772,127.077023,2017-11-13
"서울특별시 강남구청",서울특별시 강남구 일원로 90,서울특별시 강남구 일원동 713 (신영빌딩 주변),어린이보호,1,200,360도전방면,30,2009-02,02-3423-6963,37.485539,127.083151,2017-11-13
"서울특별시 강남구청",서울특별시 강남구 압구정로 410,서울특별시 강남구 청담동 78-18 (YBM청담빌딩 주변),교통단속,1,41,360도전방면,30,2005-02,02-3423-6963,37.527436,127.041594,2017-11-13
"서울특별시 강남구청",서울특별시 강남구 선릉로162길 29,서울특별시 강남구 청담동 79-10 (코르소꼬모 주변),교통단속,1,41,360도전방면,30,2005-02,02-3423-6963,37.527232,127.042366,2017-11-13
"서울특별시 강남구청",서울특별시 강남구 압구정로 428,서울특별시 강남구 청담동 80 (DKNY 청담점 주변),어린이보호,1,41,360도전방면,30,2005-02,02-3423-6963,37.526850,127.043821,2017-11-13
"서울특별시 강남구청",서울특별시 강남구 학동로 441,서울특별시 강남구 청담동 46-9 (영화빌딩 주변),교통단속,1,200,360도전방면,30,2005-02,02-3423-6963,37.518773,127.049124,2017-11-13
"서울특별시 강남구청",서울특별시 강남구 학동로 445,서울특별시 강남구 청담동 47-4 (우리들병원 주변),교통단속,1,200,360도전방면,30,2005-02,02-3423-6963,37.518917,127.049874,2017-11-13
"서울특별시 강남구청",서울특별시 강남구 삼성로 716,서울특별시 강남구 청담동 76 (청담역9번출구 주변),교통단속,1,41,360도전방면,30,2005-02,02-3423-6963,37.519732,127.049954,2017-11-13
"서울특별시 강남구청",서울특별시 강남구 선릉로 816,서울특별시 강남구 청담동 85-17 (디자이너클럽 주변),교통단속,1,41,360도전방면,30,2005-07,02-3423-6963,37.524661,127.039737,2017-11-13
"서울특별시 강남구청",서울특별시 강남구 도산대로 507,서울특별시 강남구 청담동 120-3 (대신빌딩 주변),교통단속,1,41,360도전방면,30,2005-07,02-3423-6963,37.524610,127.048703,2017-11-13
"서울특별시 강남구청",서울특별시 강남구 개포로31길 10 (개포동),서울특별시 강남구 개포동 1262-15,생활방범,4,200,360도전방면,30,2004-04,02-3423-6963,37.479661,127.049623,2017-11-13
"서울특별시 강남구청",서울특별시 강남구 개포로138길 36-15,서울특별시 강남구 일원동 636,생활방범,4,400,360도전방면,30,2016-07,02-3423-6963,37.493303,127.085211,2017-11-13
"서울특별시 강남구청",서울특별시 강남구 개포로120길 23,서울특별시 강남구 일원동 620-9,생활방범,4,400,360도전방면,30,2016-07,02-3423-6963,37.493007,127.082188,2017-11-13
"서울특별시 강남구청",서울특별시 강남구 개포로118길 26-10,서울특별시 강남구 일원동 620-6,생활방범,3,200,360도전방면,30,2016-12,02-3423-6963,37.493315,127.082013,2017-11-13
"서울특별시 강남구청",서울특별시 강남구 일원로5길 19,서울특별시 강남구 일원동 683-18,어린이보호,5,200,360도전방면,30,2016-12,02-3423-6963,37.491321,127.082393,2017-11-13
"서울특별시 강남구청",서울특별시 강남구 일원동 702-6 (삼성의료원 육교 북단 위),서울특별시 강남구 일원동 702-6 (삼성의료원 육교 북단 위),생활방범,4,200,360도전방면,30,2016-12,02-3423-6963,37.489121,127.081995,2017-11-13
"서울특별시 강남구청",서울특별시 강남구 일원로9길 18,서울특별시 강남구 일원동 687-7,생활방범,4,200,360도전방면,30,2016-12,02-3423-6963,37.489573,127.083282,2017-11-13
"서울특별시 강남구청",서울특별시 강남구 양재대로45길 19,서울특별시 강남구 일원동 661-1,생활방범,5,200,360도전방면,30,2016-12,02-3423-6963,37.491545,127.085314,2017-11-13
"서울특별시 강남구청",서울특별시 강남구 일원로5길 47,서울특별시 강남구 일원동 663-10,생활방범,4,200,360도전방면,30,2016-12,02-3423-6963,37.492075,127.084053,2017-11-13
"서울특별시 강남구청",서울특별시 강남구 개포로109길 62 (개포동),서울특별시 강남구 개포동 13-1 (대진공원 정자 옆),생활방범,4,200,360도전방면,30,2005-07,02-3423-6963,37.495750,127.078308,2017-11-13
"서울특별시 강남구청",서울특별시 강남구 일원동 699,서울특별시 강남구 일원동 699,생활방범,3,200,360도전방면,30,2014-01,02-3423-6963,37.493849,127.080064,2017-11-13
"서울특별시 강남구청",서울특별시 강남구 일원동 700-6 (마루공원 주차정산입구 횡단보도),서울특별시 강남구 일원동 700-6 (마루공원 주차정산입구 횡단보도),생활방범,3,200,360도전방면,30,2014-01,02-3423-6963,37.494631,127.082462,2017-11-13
"서울특별시 강남구청",서울특별시 강남구 수서동 수서펌프장 옥외(정문),서울특별시 강남구 수서동 수서펌프장 옥외(정문),재난재해,1,200,정문,30,2016-07,02-3423-6963,37.483300,127.107365,2017-11-13
"서울특별시 강남구청",서울특별시 강남구 수서동 수서펌프장 방류조 탄천,서울특별시 강남구 수서동 수서펌프장 방류조 탄천,재난재해,1,200,탄천,30,2016-07,02-3423-6963,37.483455,127.107274,2017-11-13
"서울특별시 강남구청",서울특별시 강남구 수서동 수서펌프장 옥외(유입스크린),서울특별시 강남구 수서동 수서펌프장 옥외(유입스크린),재난재해,1,200,,30,2016-07,02-3423-6963,37.483360,127.107402,2017-11-13
"서울특별시 강남구청",서울특별시 강남구 수서동 수서펌프장 펌프장 내,서울특별시 강남구 수서동 수서펌프장 펌프장 내,재난재해,1,200,펌프장,30,2016-07,02-3423-6963,37.483400,127.107321,2017-11-13
"서울특별시 강남구청",서울특별시 강남구 수서동 수서펌프장 전기실,서울특별시 강남구 수서동 수서펌프장 전기실,재난재해,1,200,전기실,30,2016-07,02-3423-6963,37.483432,127.107418,2017-11-13
"서울특별시 강남구청",서울특별시 강남구 수서동 수서펌프장 운영실,서울특별시 강남구 수서동 수서펌프장 운영실,재난재해,1,200,운영실,30,2016-07,02-3423-6963,37.483472,127.107408,2017-11-13
"서울특별시 강남구청",서울특별시 강남구 학동로4길 38 (논현동),서울특별시 강남구 논현동 163-24,생활방범,4,200,360도전방면,30,2012-11,02-3423-6963,37.509026,127.023919,2017-11-13
"서울특별시 강남구청",서울특별시 강남구 학동로20길 25 (논현동),서울특별시 강남구 논현동 133-13 (보미나어린이집 앞),어린이보호,3,200,360도전방면,30,2012-12,02-3423-6963,37.511509,127.028305,2017-11-13
"서울특별시 강남구청","서울특별시 강남구 봉은사로21길 19 (논현동, 논현2차한화꿈에그린아파트)",서울특별시 강남구 논현동 194-29,생활방범,4,200,360도전방면,30,2014-01,02-3423-6963,37.507199,127.031083,2017-11-13
"서울특별시 강남구청",서울특별시 강남구 강남대로118길 8 (논현동),서울특별시 강남구 논현동 199-17,생활방범,4,200,360도전방면,30,2014-02,02-3423-6963,37.506125,127.024577,2017-11-13
"서울특별시 강남구청",서울특별시 강남구 논현로161길 59 (신사동),서울특별시 강남구 신사동 551,어린이보호,1,200,360도전방면,30,2009-02,02-3423-6963,37.522158,127.023471,2017-11-13
"서울특별시 강남구청",서울특별시 강남구 논현로157길 42 (신사동),서울특별시 강남구 신사동 554-23,생활방범,1,41,360도전방면,30,2004-08,02-3423-6963,37.521611,127.024836,2017-11-13
"서울특별시 강남구청",서울특별시 강남구 논현로153길 27 (신사동),서울특별시 강남구 신사동 559-3 (신사은행나무공원 입구),생활방범,3,200,360도전방면,30,2004-08,02-3423-6963,37.520654,127.025759,2017-11-13
"서울특별시 강남구청",서울특별시 강남구 논현로153길 27 (신사동),서울특별시 강남구 신사동 559-6 (신사은행나무공원 입구),생활방범,1,200,360도전방면,30,2009-02,02-3423-6963,37.520337,127.026008,2017-11-13
"서울특별시 강남구청",서울특별시 강남구 논현로153길 19 (신사동),서울특별시 강남구 신사동 558-5,생활방범,3,200,360도전방면,30,2009-02,02-3423-6963,37.521033,127.026424,2017-11-13
"서울특별시 강남구청",서울특별시 강남구 도산대로19길 9 (신사동),서울특별시 강남구 신사동 561-6,생활방범,4,200,360도전방면,30,2004-08,02-3423-6963,37.519418,127.025308,2017-11-13
"서울특별시 강남구청",서울특별시 강남구 도산대로25길 32 (신사동),서울특별시 강남구 신사동 564,생활방범,1,41,360도전방면,30,2009-02,02-3423-6963,37.521767,127.026620,2017-11-13
"서울특별시 강남구청",서울특별시 강남구 신사동 567-37 (신사목련공원 코너),서울특별시 강남구 신사동 567-37 (신사목련공원 코너),생활방범,1,200,360도전방면,30,2009-02,02-3423-6963,37.522725,127.025792,2017-11-13
"서울특별시 강남구청",서울특별시 강남구 논현로175길 33 (신사동),서울특별시 강남구 신사동 576,생활방범,4,200,360도전방면,30,2004-08,02-3423-6963,37.525130,127.025842,2017-11-13
"서울특별시 강남구청",서울특별시 강남구 압구정로28길 49 (신사동),서울특별시 강남구 신사동 584-1,생활방범,4,200,360도전방면,30,2004-08,02-3423-6963,37.522987,127.027683,2017-11-13
"서울특별시 강남구청",서울특별시 강남구 강남대로158길 34 (신사동),서울특별시 강남구 신사동 518-2,생활방범,1,200,360도전방면,30,2010-09,02-3423-6963,37.519614,127.021551,2017-11-13
"서울특별시 강남구청",서울특별시 강남구 도산대로17길 45 (신사동),서울특별시 강남구 신사동 544-29,생활방범,1,200,360도전방면,30,2010-09,02-3423-6963,37.521436,127.023544,2017-11-13
"서울특별시 강남구청",서울특별시 강남구 논현로159길 46 (신사동),서울특별시 강남구 신사동 551-26,생활방범,1,200,360도전방면,30,2010-09,02-3423-6963,37.522093,127.024598,2017-11-13
"서울특별시 강남구청",서울특별시 강남구 신사동 562-15,서울특별시 강남구 신사동 562-15,생활방범,1,200,360도전방면,30,2014-09,02-3423-6963,37.519902,127.026299,2017-11-13
"서울특별시 강남구청",서울특별시 강남구 압구정로61길 36 (청담동),서울특별시 강남구 청담동 143 (청담중 담장),어린이보호,1,41,360도전방면,30,2004-08,02-3423-6963,37.528559,127.046142,2017-11-13
"서울특별시 강남구청","서울특별시 강남구 압구정로75길 40 (청담동, 엘지빌라)",서울특별시 강남구 청담동 104-2,생활방범,5,200,360도전방면,30,2004-08,02-3423-6963,37.528194,127.047906,2017-11-13
"서울특별시 강남구청","서울특별시 강남구 도산대로85길 56 (청담동, 현대한강아파트)",서울특별시 강남구 청담동 106,생활방범,1,41,360도전방면,30,2008-01,02-3423-6963,37.528151,127.050145,2017-11-13
"서울특별시 강남구청","서울특별시 강남구 도산대로89길 49 (청담동, 건영아파트)",서울특별시 강남구 청담동 108 (청담건영A 102동 담장),생활방범,1,41,360도전방면,30,2005-07,02-3423-6963,37.527177,127.052518,2017-11-13
"서울특별시 강남구청","서울특별시 강남구 도산대로87길 33 (청담동, 청담대우멤버스카운티3차)",서울특별시 강남구 청담동 111-12,생활방범,1,41,360도전방면,30,2004-08,02-3423-6963,37.526528,127.050361,2017-11-13
"서울특별시 강남구청",서울특별시 강남구 압구정로77길 32 (청담동),서울특별시 강남구 청담동 113-12,어린이보호,1,41,360도전방면,30,2004-08,02-3423-6963,37.527022,127.048186,2017-11-13
"서울특별시 강남구청",서울특별시 강남구 압구정로75길 6 (청담동),서울특별시 강남구 청담동 118-3,생활방범,4,200,360도전방면,30,2004-08,02-3423-6963,37.526280,127.047128,2017-11-13
"서울특별시 강남구청",서울특별시 강남구 선릉로64길 33 (대치동),서울특별시 강남구 대치동 919-35 (도곡초 담장),어린이보호,1,200,360도전방면,30,2010-09,02-3423-6963,37.499455,127.053897,2017-11-13
"서울특별시 강남구청",서울특별시 강남구 선릉로64길 12 (대치동),서울특별시 강남구 대치동 936-9,생활방범,1,200,360도전방면,30,2010-09,02-3423-6963,37.497855,127.053183,2017-11-13
"서울특별시 강남구청",서울특별시 강남구 도곡로73길 10 (대치동),서울특별시 강남구 대치동 940,생활방범,1,200,360도전방면,30,2010-09,02-3423-6963,37.498544,127.057180,2017-11-13
"서울특별시 강남구청",서울특별시 강남구 선릉로82길 5 (대치동),서울특별시 강남구 대치동 897-4,생활방범,1,200,360도전방면,30,2011-04,02-3423-6963,37.502408,127.050603,2017-11-13
"서울특별시 강남구청",서울특별시 강남구 삼성로81길 31 (대치동),서울특별시 강남구 대치동 901-43,생활방범,1,200,360도전방면,30,2011-04,02-3423-6963,37.503832,127.055104,2017-11-13
"서울특별시 강남구청",서울특별시 강남구 도곡로77길 22 (대치동),서울특별시 강남구 대치동 930-16 (대치목련공원 코너),생활방범,1,200,360도전방면,30,2011-04,02-3423-6963,37.499702,127.058762,2017-11-13
"서울특별시 강남구청",서울특별시 강남구 테헤란로64길 19 (대치동),서울특별시 강남구 대치동 890-57,생활방범,4,200,360도전방면,30,2012-11,02-3423-6963,37.503540,127.051536,2017-11-13
"서울특별시 강남구청",서울특별시 강남구 도산대로49길 6-8 (신사동),서울특별시 강남구 신사동 652-12,생활방범,3,200,360도전방면,30,2015-08,02-3423-6963,37.523390,127.037916,2017-11-13
"서울특별시 강남구청",서울특별시 강남구 압구정로30길 73 (신사동),서울특별시 강남구 신사동 593,생활방범,3,200,360도전방면,30,2014-01,02-3423-6963,37.522587,127.029018,2017-11-13
"서울특별시 강남구청",서울특별시 강남구 압구정로71길 9 (압구정동),서울특별시 강남구 압구정동 526 (청담고 정문),어린이보호,4,200,360도전방면,30,2015-12,02-3423-6963,37.528326,127.044204,2017-11-13
"서울특별시 강남구청",서울특별시 강남구 압구정동 480 (갈매기공원 내),서울특별시 강남구 압구정동 480 (갈매기공원 내),생활방범,3,200,360도전방면,30,2015-12,02-3423-6963,37.531667,127.034681,2017-11-13
"서울특별시 강남구청",서울특별시 강남구 선릉로153길 37 (압구정동),서울특별시 강남구 신사동 648 (도산공원 담장),생활방범,4,200,360도전방면,30,2015-12,02-3423-6963,37.524656,127.036066,2017-11-13
"서울특별시 강남구청",서울특별시 강남구 압구정로 214 (압구정동),서울특별시 강남구 신사동 615,생활방범,5,400,360도전방면,30,2016-07,02-3423-6963,37.527766,127.030781,2017-11-13
"서울특별시 강남구청",서울특별시 강남구 압구정로 218 (압구정동),서울특별시 강남구 신사동 615-2,생활방범,4,400,360도전방면,30,2016-07,02-3423-6963,37.528387,127.031251,2017-11-13
"서울특별시 강남구청","서울특별시 강남구 압구정로 201 (압구정동, 현대아파트)",서울특별시 강남구 압구정동 456 (현대A 80동 앞),생활방범,5,200,360도전방면,30,2016-12,02-3423-6963,37.528310,127.028448,2017-11-13
"서울특별시 강남구청","서울특별시 강남구 압구정로50길 28 (신사동, 로데오현대아파트)",서울특별시 강남구 신사동 658-2,생활방범,4,200,360도전방면,30,2016-12,02-3423-6963,37.526340,127.037529,2017-11-13
"서울특별시 강남구청",서울특별시 강남구 언주로172길 64 (신사동),서울특별시 강남구 신사동 663-20,생활방범,5,200,360도전방면,30,2016-12,02-3423-6963,37.526752,127.038957,2017-11-13
"서울특별시 강남구청",서울특별시 강남구 언주로157길 22,서울특별시 강남구 신사동 625-9,생활방범,4,200,360도전방면,30,2016-12,02-3423-6963,37.523954,127.031160,2017-11-13
"서울특별시 강남구청",서울특별시 강남구 압구정동 459,서울특별시 강남구 압구정동 459,생활방범,4,200,360도전방면,30,2016-12,02-3423-6963,37.530716,127.031453,2017-11-13
"서울특별시 강남구청",서울특별시 강남구 봉은사로26길 22-15 (역삼동),서울특별시 강남구 역삼동 608-35,생활방범,4,200,360도전방면,30,2009-02,02-3423-6963,37.504902,127.033147,2017-11-13
"서울특별시 강남구청",서울특별시 강남구 봉은사로18길 82 (역삼동),서울특별시 강남구 역삼동 619-24,생활방범,3,200,360도전방면,30,2005-07,02-3423-6963,37.501305,127.027613,2017-11-13
"서울특별시 강남구청",서울특별시 강남구 강남대로66길 14 (역삼동),서울특별시 강남구 역삼동 837-13,어린이보호,5,200,360도전방면,30,2015-02,02-3423-6963,37.491811,127.031696,2017-11-13
"서울특별시 강남구청","서울특별시 강남구 도곡로3길 26 (역삼동, 역삼한스빌아파트)",서울특별시 강남구 역삼동 836-26,어린이보호,4,200,360도전방면,30,2015-02,02-3423-6963,37.492279,127.033250,2017-11-13
"서울특별시 강남구청","서울특별시 강남구 논현로63길 16 (역삼동, 역삼종합시장더블루)",서울특별시 강남구 역삼동 796-29 (서해더블루 주차장입구),생활방범,5,200,360도전방면,30,2015-02,02-3423-6963,37.493114,127.038799,2017-11-13
"서울특별시 강남구청",서울특별시 강남구 역삼로20길 17 (역삼동),서울특별시 강남구 역삼동 791-12 (辛갈비사랑 앞),생활방범,4,200,360도전방면,30,2015-08,02-3423-6963,37.494213,127.037970,2017-11-13
"서울특별시 강남구청",서울특별시 강남구 강남대로94길 51-8 (역삼동),서울특별시 강남구 역삼동 636-25,생활방범,4,200,360도전방면,30,2015-08,02-3423-6963,37.500895,127.031200,2017-11-13
"서울특별시 강남구청","서울특별시 강남구 테헤란로21길 18 (역삼동, 로얄빌리지)",서울특별시 강남구 역삼동 644-6,생활방범,4,200,360도전방면,30,2015-08,02-3423-6963,37.501578,127.034317,2017-11-13
"서울특별시 강남구청",서울특별시 강남구 봉은사로30길 4 (역삼동),서울특별시 강남구 역삼동 650-5 (주차장 우측),생활방범,4,200,360도전방면,30,2015-08,02-3423-6963,37.506821,127.035309,2017-11-13
"서울특별시 강남구청",서울특별시 강남구 테헤란로37길 28-1 (역삼동),서울특별시 강남구 역삼동 674-10,생활방범,4,200,360도전방면,30,2015-08,02-3423-6963,37.504123,127.040201,2017-11-13
"서울특별시 강남구청","서울특별시 강남구 언주로106길 24 (역삼동, 삼성릿츠빌)",서울특별시 강남구 역삼동 686-17,생활방범,5,200,360도전방면,30,2015-08,02-3423-6963,37.508119,127.041789,2017-11-13
"서울특별시 강남구청",서울특별시 강남구 테헤란로22길 47 (역삼동),서울특별시 강남구 역삼동 744-4 (중원빌라 부근),생활방범,5,200,360도전방면,30,2015-08,02-3423-6963,37.496565,127.035620,2017-11-13
"서울특별시 강남구청","서울특별시 강남구 도곡로17길 12 (역삼동, 거평빌라)",서울특별시 강남구 역삼동 794-28,생활방범,4,200,360도전방면,30,2015-08,02-3423-6963,37.491875,127.037358,2017-11-13
"서울특별시 강남구청",서울특별시 강남구 강남대로66길 21 (역삼동),서울특별시 강남구 역삼동 832-40 (역삼초 담장),어린이보호,3,200,360도전방면,30,2015-12,02-3423-6963,37.493006,127.032084,2017-11-13
"서울특별시 강남구청",서울특별시 강남구 도산대로 113,서울특별시 강남구 신사동 513-4 (신사역8번출구 주변),교통단속,1,200,360도전방면,30,2005-07,02-3423-6963,37.516913,127.021021,2017-11-13
"서울특별시 강남구청",서울특별시 강남구 도산대로 131,서울특별시 강남구 신사동 537-11 (신사호텔 주변),교통단속,1,400,360도전방면,30,2005-07,02-3423-6963,37.517654,127.022733,2017-11-13
"서울특별시 강남구청",서울특별시 강남구 도산대로 149,서울특별시 강남구 신사동 539-10 (진우빌딩 주변),교통단속,1,41,360도전방면,30,2005-07,02-3423-6963,37.518577,127.024854,2017-11-13
"서울특별시 강남구청",서울특별시 강남구 논현로 847,서울특별시 강남구 신사동 582-6 (그랜드성형외과 주변),교통단속,1,200,360도전방면,30,2005-07,02-3423-6963,37.524465,127.028234,2017-11-13
"서울특별시 강남구청",서울특별시 강남구 강남대로 626,서울특별시 강남구 신사동 502-5 (우리은행 신사동지점 주변),교통단속,1,200,360도전방면,30,2007-12,02-3423-6963,37.517575,127.019379,2017-11-13
"서울특별시 강남구청",서울특별시 강남구 압구정로 156,서울특별시 강남구 신사동 579 (새서울주유소 주변),교통단속,1,200,360도전방면,30,2007-12,02-3423-6963,37.526081,127.026569,2017-11-13
"서울특별시 강남구청",서울특별시 강남구 압구정로18길 28,서울특별시 강남구 신사동 550-11,어린이보호,1,200,360도전방면,30,2014-12,02-3423-6963,37.522635,127.023417,2017-11-13
"서울특별시 강남구청",서울특별시 강남구 압구정로18길 28,서울특별시 강남구 신사동 550-11 (신구초교 정문),어린이보호,1,200,360도전방면,30,2015-08,02-3423-6963,37.523190,127.025241,2017-11-13
"서울특별시 강남구청",서울특별시 강남구 압구정동 422 (신사중-현대고 사이 신사공원),서울특별시 강남구 압구정동 422 (신사중-현대고 사이 신사공원),교통단속,1,200,360도전방면,30,2015-08,02-3423-6963,37.524184,127.022199,2017-11-13
"서울특별시 강남구청",서울특별시 강남구 개포로22길 87 (개포동),서울특별시 강남구 개포동 1273 (포이초 담장),어린이보호,1,200,360도전방면,30,2010-09,02-3423-6963,37.475093,127.052428,2017-11-13
"서울특별시 강남구청",서울특별시 강남구 논현로12길 16 (개포동),서울특별시 강남구 개포동 1197,어린이보호,1,200,360도전방면,30,2011-04,02-3423-6963,37.474983,127.049388,2017-11-13
"서울특별시 강남구청",서울특별시 강남구 개포동 1229-2,서울특별시 강남구 개포동 1229-2,생활방범,1,200,360도전방면,30,2011-04,02-3423-6963,37.477731,127.045273,2017-11-13
"서울특별시 강남구청",서울특별시 강남구 개포로30길 13 (개포동),서울특별시 강남구 개포동 1213-4,생활방범,1,200,360도전방면,30,2011-04,02-3423-6963,37.478229,127.050276,2017-11-13
"서울특별시 강남구청",서울특별시 강남구 개포로24길 6 (개포동),서울특별시 강남구 개포동 1218,생활방범,1,200,360도전방면,30,2011-04,02-3423-6963,37.478530,127.048123,2017-11-13
"서울특별시 강남구청",서울특별시 강남구 개포로20길 48 (개포동),서울특별시 강남구 개포동 1223-1 (개포은행나무공원 코너),생활방범,4,200,360도전방면,30,2011-12,02-3423-6963,37.475783,127.049025,2017-11-13
"서울특별시 강남구청",서울특별시 강남구 개포로21길 17 (개포동),서울특별시 강남구 개포동 1252-10,생활방범,5,200,360도전방면,30,2011-12,02-3423-6963,37.479798,127.046880,2017-11-13
"서울특별시 강남구청",서울특별시 강남구 개포로22길 46 (개포동),서울특별시 강남구 개포동 1200,생활방범,5,200,360도전방면,30,2011-12,02-3423-6963,37.476350,127.049668,2017-11-13
"서울특별시 강남구청",서울특별시 강남구 개포동 1279 (양재천 계단 앞),서울특별시 강남구 개포동 1279 (양재천 계단 앞),생활방범,4,200,360도전방면,30,2012-11,02-3423-6963,37.482205,127.048335,2017-11-13
"서울특별시 강남구청",서울특별시 강남구 개포로28길 47 (개포동),서울특별시 강남구 개포동 1271 (강남구민체육관 입구),생활방범,3,200,360도전방면,30,2012-11,02-3423-6963,37.476763,127.052384,2017-11-13
"서울특별시 강남구청",서울특별시 강남구 개포로 257 (개포동),서울특별시 강남구 개포동 1262-9 (강남동산어린이집 앞),어린이보호,3,200,360도전방면,30,2012-12,02-3423-6963,37.479667,127.050252,2017-11-13
"서울특별시 강남구청","서울특별시 강남구 논현로4길 50 (개포동, 포이현대빌라트)",서울특별시 강남구 개포동 1165,생활방범,4,200,360도전방면,30,2014-01,02-3423-6963,37.474135,127.053509,2017-11-13
"서울특별시 강남구청",서울특별시 강남구 논현로8길 46-8 (개포동),서울특별시 강남구 개포동 1176 (개포목련공원 내),생활방범,3,200,360도전방면,30,2014-01,02-3423-6963,37.474187,127.052383,2017-11-13
"서울특별시 강남구청",서울특별시 강남구 언주로 25 (개포동),서울특별시 강남구 개포동 656-1 (예지어린이집 앞),어린이보호,4,200,360도전방면,30,2013-12,02-3423-6963,37.478933,127.055546,2017-11-13
"서울특별시 강남구청",서울특별시 강남구 개포로22길 39-11 (개포동),서울특별시 강남구 개포동 1204-7 (아이뜰어린이집 앞),어린이보호,4,200,360도전방면,30,2013-12,02-3423-6963,37.478958,127.055619,2017-11-13
"서울특별시 강남구청",서울특별시 강남구 개포로36길 14 (개포동),서울특별시 강남구 개포동 1210-4 (해맑은어린이집 앞),어린이보호,4,200,360도전방면,30,2013-12,02-3423-6963,37.478556,127.051415,2017-11-13
"서울특별시 강남구청",서울특별시 강남구 논현로6길 22 (개포동),서울특별시 강남구 개포동 1172,생활방범,5,200,360도전방면,30,2014-02,02-3423-6963,37.473756,127.051266,2017-11-13
"서울특별시 강남구청",서울특별시 강남구 논현로16길 9 (개포동),서울특별시 강남구 개포동 1229-17,생활방범,5,200,360도전방면,30,2014-01,02-3423-6963,37.476311,127.047147,2017-11-13
"서울특별시 강남구청",서울특별시 강남구 개포동 1267-1,서울특별시 강남구 개포동 1267-1,생활방범,3,200,360도전방면,30,2014-05,02-3423-6963,37.482414,127.049657,2017-11-13
"서울특별시 강남구청",서울특별시 강남구 개포동 1164-33,서울특별시 강남구 개포동 1164-33,생활방범,3,200,360도전방면,30,2014-05,02-3423-6963,37.473159,127.053258,2017-11-13
"서울특별시 강남구청",서울특별시 강남구 논현로6길 11 (개포동),서울특별시 강남구 개포동 1189-11,생활방범,5,200,360도전방면,30,2014-09,02-3423-6963,37.473232,127.050323,2017-11-13
"서울특별시 강남구청",서울특별시 강남구 논현로121길 45 (논현동),서울특별시 강남구 논현동 173,생활방범,5,200,360도전방면,30,2014-01,02-3423-6963,37.509111,127.029312,2017-11-13
"서울특별시 강남구청",서울특별시 강남구 논현로 651 (논현동),서울특별시 강남구 논현동 151-25,생활방범,4,200,360도전방면,30,2014-09,02-3423-6963,37.511786,127.030876,2017-11-13
"서울특별시 강남구청","서울특별시 강남구 학동로18길 43 (논현동, 세일연립)",서울특별시 강남구 논현동 150-12,생활방범,4,200,360도전방면,30,2014-09,02-3423-6963,37.510481,127.029141,2017-11-13
"서울특별시 강남구청",서울특별시 강남구 학동로20길 63-5 (논현동),서울특별시 강남구 논현동 158-18,생활방범,3,200,360도전방면,30,2014-09,02-3423-6963,37.509424,127.027175,2017-11-13
"서울특별시 강남구청",서울특별시 강남구 논현로123길 19 (논현동),서울특별시 강남구 논현동 150-5 (논현개나리공원 내),생활방범,4,200,360도전방면,30,2015-02,02-3423-6963,37.511385,127.029937,2017-11-13
"서울특별시 강남구청","서울특별시 강남구 학동로18길 45 (논현동, 세일연립)",서울특별시 강남구 논현동 150-11,생활방범,4,200,360도전방면,30,2015-02,02-3423-6963,37.510567,127.029656,2017-11-13
"서울특별시 강남구청","서울특별시 강남구 봉은사로25길 33-6 (논현동, 현대연립)",서울특별시 강남구 논현동 176-10,생활방범,4,200,360도전방면,30,2015-02,02-3423-6963,37.509604,127.031442,2017-11-13
"서울특별시 강남구청",서울특별시 강남구 학동로8길 7-7 (논현동),서울특별시 강남구 논현동 124-22,생활방범,4,200,360도전방면,30,2015-08,02-3423-6963,37.511484,127.024821,2017-11-13
"서울특별시 강남구청",서울특별시 강남구 학동로8길 11 (논현동),서울특별시 강남구 논현동 124-36,생활방범,3,200,360도전방면,30,2015-08,02-3423-6963,37.511338,127.024289,2017-11-13
"서울특별시 강남구청",서울특별시 강남구 봉은사로25길 33-5 (논현동),서울특별시 강남구 논현동 176-17,생활방범,3,200,360도전방면,30,2015-08,02-3423-6963,37.509128,127.031574,2017-11-13
"서울특별시 강남구청",서울특별시 강남구 학동로 171 (논현동),서울특별시 강남구 논현동 58-3,생활방범,4,200,360도전방면,30,2015-08,02-3423-6963,37.514331,127.029452,2017-11-13
"서울특별시 강남구청",서울특별시 강남구 논현로119길 42 (논현동),서울특별시 강남구 논현동 172-26,생활방범,5,200,360도전방면,30,2015-08,02-3423-6963,37.508715,127.029848,2017-11-13
"서울특별시 강남구청",서울특별시 강남구 논현로117길 24 (논현동),서울특별시 강남구 논현동 177-11,생활방범,4,200,360도전방면,30,2015-12,02-3423-6963,37.509062,127.030756,2017-11-13
"서울특별시 강남구청",서울특별시 강남구 도산대로4길 17 (논현동),서울특별시 강남구 논현동 16-22,생활방범,5,400,360도전방면,30,2016-07,02-3423-6963,37.515245,127.021454,2017-11-13
"서울특별시 강남구청",서울특별시 강남구 학동로11길 13 (논현동),서울특별시 강남구 논현동 43-5,생활방범,5,400,360도전방면,30,2016-07,02-3423-6963,37.512889,127.024292,2017-11-13
"서울특별시 강남구청",서울특별시 강남구 강남대로 478 (논현동),서울특별시 강남구 논현동 200-3,생활방범,5,400,360도전방면,30,2016-07,02-3423-6963,37.505277,127.024997,2017-11-13
"서울특별시 강남구청",서울특별시 강남구 논현로113길 37 (논현동),서울특별시 강남구 논현동 194-13,생활방범,4,400,360도전방면,30,2016-07,02-3423-6963,37.507616,127.030374,2017-11-13
"서울특별시 강남구청",서울특별시 강남구 봉은사로21길 57-8 (논현동),서울특별시 강남구 논현동 157-11,생활방범,5,400,360도전방면,30,2016-07,02-3423-6963,37.509197,127.027914,2017-11-13
"서울특별시 강남구청",서울특별시 강남구 학동로18길 9 (논현동),서울특별시 강남구 논현동 135,생활방범,5,400,360도전방면,30,2016-07,02-3423-6963,37.512162,127.027262,2017-11-13
"서울특별시 강남구청",서울특별시 강남구 논현동 19-3,서울특별시 강남구 논현동 19-3,생활방범,4,200,360도전방면,30,2016-12,02-3423-6963,37.513039,127.021263,2017-11-13
"서울특별시 강남구청",서울특별시 강남구 강남대로146길 10 (논현동),서울특별시 강남구 논현동 21-1,생활방범,5,200,360도전방면,30,2016-12,02-3423-6963,37.514705,127.020927,2017-11-13
"서울특별시 강남구청",서울특별시 강남구 학동로18길 33 (논현동),서울특별시 강남구 논현동 133-30,생활방범,5,200,360도전방면,30,2016-12,02-3423-6963,37.510904,127.028440,2017-11-13
"서울특별시 강남구청","서울특별시 강남구 압구정로73길 30 (청담동, 청담7차상지리츠빌)",서울특별시 강남구 청담동 115-6,생활방범,1,41,360도전방면,30,2009-02,02-3423-6963,37.527731,127.046757,2017-11-13
"서울특별시 강남구청",서울특별시 강남구 압구정로79길 20 (청담동),서울특별시 강남구 청담동 120-6,어린이보호,1,200,360도전방면,30,2008-01,02-3423-6963,37.525120,127.048933,2017-11-13
"서울특별시 강남구청",서울특별시 강남구 도산대로101길 7 (청담동),서울특별시 강남구 청담동 125-9,생활방범,5,200,360도전방면,30,2004-08,02-3423-6963,37.525585,127.052631,2017-11-13
"서울특별시 강남구청",서울특별시 강남구 청담동 107-1,서울특별시 강남구 청담동 107-1,생활방범,4,200,360도전방면,30,2004-08,02-3423-6963,37.527488,127.053311,2017-11-13
"서울특별시 강남구청",서울특별시 강남구 청담동 134-9 (청담자이A 103동 앞),서울특별시 강남구 청담동 134-9 (청담자이A 103동 앞),생활방범,1,41,360도전방면,30,2005-07,02-3423-6963,37.524053,127.056126,2017-11-13
"서울특별시 강남구청",서울특별시 강남구 청담동 134-26 (청담삼익쇼핑센터 입구),서울특별시 강남구 청담동 134-26 (청담삼익쇼핑센터 입구),어린이보호,4,400,360도전방면,30,2004-08,02-3423-6963,37.522305,127.057091,2017-11-13
"서울특별시 강남구청","서울특별시 강남구 도산대로81길 69 (청담동, 흥화맨션)",서울특별시 강남구 청담동 141-1,어린이보호,3,200,360도전방면,30,2008-01,02-3423-6963,37.527602,127.044055,2017-11-13
"서울특별시 강남구청",서울특별시 강남구 삼성로149길 3-8 (청담동),서울특별시 강남구 청담동 7-3,생활방범,1,200,360도전방면,30,2010-09,02-3423-6963,37.522895,127.047252,2017-11-13
"서울특별시 강남구청",서울특별시 강남구 선릉로 742 (청담동),서울특별시 강남구 청담동 23-4 (영동고 담장),생활방범,1,200,360도전방면,30,2010-09,02-3423-6963,37.520290,127.043634,2017-11-13
"서울특별시 강남구청",서울특별시 강남구 학동로 425 (청담동),서울특별시 강남구 청담동 35-10 (청담2문화센터 사거리),어린이보호,1,200,360도전방면,30,2010-09,02-3423-6963,37.518867,127.046617,2017-11-13
"서울특별시 강남구청",서울특별시 강남구 학동로 437 (청담동),서울특별시 강남구 청담동 46-13,생활방범,1,200,360도전방면,30,2010-09,02-3423-6963,37.518646,127.048765,2017-11-13
"서울특별시 강남구청",서울특별시 강남구 도산대로66길 19 (청담동),서울특별시 강남구 청담동 18-26,생활방범,1,200,360도전방면,30,2011-04,02-3423-6963,37.522302,127.044239,2017-11-13
"서울특별시 강남구청",서울특별시 강남구 도산대로62길 18 (청담동),서울특별시 강남구 청담동 20-22,생활방범,1,200,360도전방면,30,2011-04,02-3423-6963,37.522206,127.042737,2017-11-13
"서울특별시 강남구청","서울특별시 강남구 도산대로70길 25 (청담동, 청담2차e편한세상아파트)",서울특별시 강남구 청담동 14 (e-편한세상A 입구),생활방범,1,200,360도전방면,30,2011-04,02-3423-6963,37.521597,127.045696,2017-11-13
"서울특별시 강남구청",서울특별시 강남구 선릉로138길 4-7 (청담동),서울특별시 강남구 청담동 40-11,생활방범,3,200,360도전방면,30,2011-12,02-3423-6963,37.519064,127.041043,2017-11-13
"서울특별시 강남구청","서울특별시 강남구 선릉로148길 52-11 (청담동, 강남로얄빌라)",서울특별시 강남구 청담동 18-5,생활방범,4,200,360도전방면,30,2011-12,02-3423-6963,37.522361,127.043857,2017-11-13
"서울특별시 강남구청","서울특별시 강남구 도산대로83길 36 (청담동, 청담현대빌라트)",서울특별시 강남구 청담동 121,어린이보호,5,200,360도전방면,30,2012-11,02-3423-6963,37.526826,127.048798,2017-11-13
"서울특별시 강남구청","서울특별시 강남구 도산대로96길 39 (청담동, 청담공원아파트)",서울특별시 강남구 청담동 61 (삼성청담공원A 담장),생활방범,4,200,360도전방면,30,2012-11,02-3423-6963,37.522448,127.049244,2017-11-13
"서울특별시 강남구청",서울특별시 강남구 학동로67길 15 (청담동),서울특별시 강남구 청담동 35-6 (청담몬테소리유치원),어린이보호,3,200,360도전방면,30,2012-12,02-3423-6963,37.519118,127.046603,2017-11-13
"서울특별시 강남구청",서울특별시 강남구 도산대로56길 14 (청담동),서울특별시 강남구 청담동 1-13 (청담어린이집 앞),어린이보호,3,200,360도전방면,30,2012-12,02-3423-6963,37.522204,127.040307,2017-11-13
"서울특별시 강남구청",서울특별시 강남구 선릉로 742 (청담동),서울특별시 강남구 청담동 23-4,생활방범,3,200,360도전방면,30,2014-01,02-3423-6963,37.521580,127.043222,2017-11-13
"서울특별시 강남구청",서울특별시 강남구 테헤란로7길 32 (역삼동),서울특별시 강남구 역삼동 635 (국기원 담장),생활방범,4,200,360도전방면,30,2008-01,02-3423-6963,37.502231,127.029434,2017-11-13
"서울특별시 강남구청",서울특별시 강남구 논현로99길 29 (역삼동),서울특별시 강남구 역삼동 629,생활방범,5,200,360도전방면,30,2005-07,02-3423-6963,37.503157,127.032911,2017-11-13
"서울특별시 강남구청",서울특별시 강남구 테헤란로13길 49 (역삼동),서울특별시 강남구 역삼동 633-6,생활방범,5,200,360도전방면,30,2008-01,02-3423-6963,37.502957,127.031088,2017-11-13
"서울특별시 강남구청",서울특별시 강남구 테헤란로7길 22 (역삼동),서울특별시 강남구 역삼동 635-2 (역삼공원 코너),생활방범,3,200,360도전방면,30,2009-02,02-3423-6963,37.500996,127.030178,2017-11-13
"서울특별시 강남구청",서울특별시 강남구 논현로97길 19-6 (역삼동),서울특별시 강남구 역삼동 639-9,생활방범,1,41,360도전방면,30,2009-02,02-3423-6963,37.502437,127.034246,2017-11-13
"서울특별시 강남구청",서울특별시 강남구 언주로99길 14 (역삼동),서울특별시 강남구 역삼동 663-29,생활방범,1,41,360도전방면,30,2009-02,02-3423-6963,37.505645,127.039679,2017-11-13
"서울특별시 강남구청",서울특별시 강남구 논현로102길 14 (역삼동),서울특별시 강남구 역삼동 666-1,생활방범,3,200,360도전방면,30,2009-02,02-3423-6963,37.505049,127.036372,2017-11-13
"서울특별시 강남구청",서울특별시 강남구 논현로94길 15 (역삼동),서울특별시 강남구 역삼동 669-18,생활방범,5,200,360도전방면,30,2008-01,02-3423-6963,37.502599,127.037653,2017-11-13
"서울특별시 강남구청",서울특별시 강남구 언주로97길 25 (역삼동),서울특별시 강남구 역삼동 673-6,생활방범,1,41,360도전방면,30,2005-07,02-3423-6963,37.504913,127.039367,2017-11-13
"서울특별시 강남구청",서울특별시 강남구 테헤란로39길 39 (역삼동),서울특별시 강남구 역삼동 674-37,생활방범,1,41,360도전방면,30,2009-02,02-3423-6963,37.504957,127.040698,2017-11-13
"서울특별시 강남구청",서울특별시 강남구 선릉로 567 (역삼동),서울특별시 강남구 역삼동 683-10,생활방범,1,41,360도전방면,30,2005-07,02-3423-6963,37.509080,127.043922,2017-11-13
"서울특별시 강남구청",서울특별시 강남구 봉은사로50길 49 (역삼동),서울특별시 강남구 역삼동 683-43,생활방범,1,41,360도전방면,30,2005-07,02-3423-6963,37.507372,127.045123,2017-11-13
"서울특별시 강남구청",서울특별시 강남구 봉은사로48길 29 (역삼동),서울특별시 강남구 역삼동 685-3,생활방범,4,400,360도전방면,30,2009-02,02-3423-6963,37.507534,127.042162,2017-11-13
"서울특별시 강남구청","서울특별시 강남구 언주로106길 34 (역삼동,그랜드빌리지)",서울특별시 강남구 역삼동 685-15,생활방범,1,41,360도전방면,30,2009-02,02-3423-6963,37.508307,127.042568,2017-11-13
"서울특별시 강남구청",서울특별시 강남구 테헤란로55길 37 (역삼동),서울특별시 강남구 역삼동 695-14,생활방범,1,41,360도전방면,30,2009-02,02-3423-6963,37.506509,127.045717,2017-11-13
"서울특별시 강남구청",서울특별시 강남구 선릉로93길 46 (역삼동),서울특별시 강남구 역삼동 703-9,생활방범,1,41,360도전방면,30,2004-08,02-3423-6963,37.504527,127.045076,2017-11-13
"서울특별시 강남구청","서울특별시 강남구 삼성로51길 37 (대치동, 래미안대치팰리스아파트(1단지))",서울특별시 강남구 대치동 1027 (대치클래시아오피스텔 주변),교통단속,1,200,360도전방면,30,2016-12,02-3423-6963,37.494153,127.060356,2017-11-13
"서울특별시 강남구청","서울특별시 강남구 선릉로 222 (대치동, 대치아이파크아파트)",서울특별시 강남구 대치동 888 (단국사대부속고 정문 주변),교통단속,1,200,360도전방면,30,2016-12,02-3423-6963,37.495346,127.055372,2017-11-13
"서울특별시 강남구청",서울특별시 강남구 테헤란로 518,서울특별시 강남구 대치동 944-31 (섬유센터 주변),교통단속,1,400,360도전방면,30,2004-04,02-3423-6963,37.507904,127.060805,2017-11-13
"서울특별시 강남구청",서울특별시 강남구 영동대로 221,서울특별시 강남구 대치동 994-8 (서림상가 주변),교통단속,1,400,360도전방면,30,2005-07,02-3423-6963,37.498576,127.068395,2017-11-13
"서울특별시 강남구청",서울특별시 강남구 도곡로93길 12,서울특별시 강남구 대치동 985 (우성아파트 주변),교통단속,1,200,360도전방면,30,2005-07,02-3423-6963,37.500328,127.064844,2017-11-13
"서울특별시 강남구청",서울특별시 강남구 논현로 857,서울특별시 강남구 신사동 582-12 (압구정역4번출구 주변),교통단속,1,200,360도전방면,30,2015-12,02-3423-6963,37.525485,127.028271,2017-11-13
"서울특별시 강남구청",서울특별시 강남구 도산대로25길 32 (신사동),서울특별시 강남구 신사동 564 (공영주차장 입구 주변),교통단속,1,400,360도전방면,30,2016-06,02-3423-6963,37.521692,127.026593,2017-11-13
"서울특별시 강남구청",서울특별시 강남구 도산대로 323,서울특별시 강남구 신사동 651-21 (씨네시티빌딩 주변),교통단속,1,400,360도전방면,30,2005-02,02-3423-6963,37.522836,127.037273,2017-11-13
"서울특별시 강남구청",서울특별시 강남구 압구정로 312,서울특별시 강남구 신사동 638-6 (신한은행 로데오지점 주변),어린이보호,1,41,360도전방면,30,2005-02,02-3423-6963,37.528906,127.035673,2017-11-13
"서울특별시 강남구청",서울특별시 강남구 압구정로 322,서울특별시 강남구 신사동 639-4 (KB 압구정동지점 주변),어린이보호,1,41,360도전방면,30,2005-02,02-3423-6963,37.528637,127.036804,2017-11-13
"서울특별시 강남구청",서울특별시 강남구 압구정로 334,서울특별시 강남구 신사동 660-8 (파리크라상 압구정점 주변),교통단속,1,41,360도전방면,30,2005-02,02-3423-6963,37.528282,127.038269,2017-11-13
"서울특별시 강남구청",서울특별시 강남구 압구정로 342,서울특별시 강남구 신사동 661-3 (H&M 압구정점 주변),교통단속,1,200,360도전방면,30,2005-02,02-3423-6963,37.527899,127.039739,2017-11-13
"서울특별시 강남구청",서울특별시 강남구 도산대로 313,서울특별시 강남구 신사동 630-31 (도산공원입구 주변),교통단속,1,200,360도전방면,30,2005-07,02-3423-6963,37.522358,127.035695,2017-11-13
"서울특별시 강남구청",서울특별시 강남구 선릉로 801,서울특별시 강남구 신사동 666-13 (KB 학동사거리지점 주변),교통단속,1,200,360도전방면,30,2005-07,02-3423-6963,37.523408,127.038999,2017-11-13
"서울특별시 강남구청",서울특별시 강남구 압구정로29길 72-1,서울특별시 강남구 압구정동 454 (SC은행 압구정동지점 주변),교통단속,1,41,360도전방면,30,2005-07,02-3423-6963,37.532105,127.027319,2017-11-13
"서울특별시 강남구청",서울특별시 강남구 논현로 808,서울특별시 강남구 신사동 590-22 (미니스톱 주변),교통단속,1,200,360도전방면,30,2005-07,02-3423-6963,37.520817,127.028330,2017-11-13
"서울특별시 강남구청",서울특별시 강남구 압구정로 204,서울특별시 강남구 신사동 614 (김경년내과 주변),교통단속,1,41,360도전방면,30,2005-07,02-3423-6963,37.527510,127.029353,2017-11-13
"서울특별시 강남구청",서울특별시 강남구 언주로 871,서울특별시 강남구 신사동 617-5 (호산병원 주변),교통단속,1,41,360도전방면,30,2005-07,02-3423-6963,37.528427,127.033478,2017-11-13
"서울특별시 강남구청",서울특별시 강남구 언주로 813,서울특별시 강남구 신사동 627-21 (제주항 주변),교통단속,1,200,360도전방면,30,2005-07,02-3423-6963,37.522991,127.033042,2017-11-13
"서울특별시 강남구청",서울특별시 강남구 언주로 851,서울특별시 강남구 신사동 621-6 (이즈미 주변),교통단속,1,41,360도전방면,30,2005-07,02-3423-6963,37.526413,127.033176,2017-11-13
"서울특별시 강남구청",서울특별시 강남구 신사동 610-10 (압구정역2번출구 주변),서울특별시 강남구 신사동 610-10 (압구정역2번출구 주변),교통단속,1,200,360도전방면,30,2006-09,02-3423-6963,37.526552,127.028681,2017-11-13
"서울특별시 강남구청",서울특별시 강남구 논현로 838,서울특별시 강남구 신사동 598-4 (농협 압구정역지점 주변),교통단속,1,41,360도전방면,30,2006-09,02-3423-6963,37.523146,127.028472,2017-11-13
"서울특별시 강남구청",서울특별시 강남구 압구정로 321,서울특별시 강남구 압구정동 489 (갤러리아백화점 주변),교통단속,1,200,360도전방면,30,2007-12,02-3423-6963,37.528364,127.039149,2017-11-13
"서울특별시 강남구청",서울특별시 강남구 언주로 829,서울특별시 강남구 신사동 627-9 (삼원가든 주변),교통단속,1,200,360도전방면,30,2009-06,02-3423-6963,37.524326,127.032907,2017-11-13
"서울특별시 강남구청",서울특별시 강남구 압구정로 401,서울특별시 강남구 압구정동 513 (한양아파트 주변),교통단속,1,400,360도전방면,30,2010-01,02-3423-6963,37.529011,127.041269,2017-11-13
"서울특별시 강남구청","서울특별시 강남구 삼성로4길 17 (개포동, 주공아파트)",서울특별시 강남구 개포동 187 (개포주공5단지 501동 앞),어린이보호,1,41,360도전방면,30,2005-07,02-3423-6963,37.488893,127.069232,2017-11-13
"서울특별시 강남구청",서울특별시 강남구 개포로 217 (개포동),서울특별시 강남구 개포동 1247-5 (포이공원 내),생활방범,3,200,360도전방면,30,2014-09,02-3423-6963,37.478883,127.046801,2017-11-13
"서울특별시 강남구청",서울특별시 강남구 논현로8길 24 (개포동),서울특별시 강남구 개포동 1185 (현대빌라사거리),생활방범,5,200,360도전방면,30,2014-09,02-3423-6963,37.474105,127.051027,2017-11-13
"서울특별시 강남구청","서울특별시 강남구 개포로28길 28 (개포동, 리치타운아파트)",서울특별시 강남구 개포동 1204-5,생활방범,3,200,360도전방면,30,2014-09,02-3423-6963,37.477434,127.050357,2017-11-13
"서울특별시 강남구청",서울특별시 강남구 개포로22길 65 (개포동),서울특별시 강남구 개포동 1272,생활방범,4,200,360도전방면,30,2015-02,02-3423-6963,37.476766,127.051351,2017-11-13
"서울특별시 강남구청",서울특별시 강남구 논현로20길 18 (개포동),서울특별시 강남구 개포동 1237-6,생활방범,3,200,360도전방면,30,2015-02,02-3423-6963,37.478230,127.046273,2017-11-13
"서울특별시 강남구청",서울특별시 강남구 논현로18길 14-9 (개포동),서울특별시 강남구 개포동 1234-14 (민경빌라주변),생활방범,3,200,360도전방면,30,2015-02,02-3423-6963,37.477445,127.046626,2017-11-13
"서울특별시 강남구청","서울특별시 강남구 개포로28길 36 (개포동, 비스타그린빌)",서울특별시 강남구 개포동 1202-6 (래미안빌 주변),생활방범,4,200,360도전방면,30,2015-08,02-3423-6963,37.477079,127.050735,2017-11-13
"서울특별시 강남구청","서울특별시 강남구 개포로32길 19 (개포동, 베네세하우스)",서울특별시 강남구 개포동 1209-12 (베네세하우스 주변),생활방범,3,200,360도전방면,30,2015-08,02-3423-6963,37.478214,127.050706,2017-11-13
"서울특별시 강남구청","서울특별시 강남구 봉은사로111길 25 (삼성동, 금호어울림아파트)",서울특별시 강남구 삼성동 102-2,생활방범,4,200,360도전방면,30,2014-01,02-3423-6963,37.517168,127.064803,2017-11-13
"서울특별시 강남구청","서울특별시 강남구 삼성로120길 52-9 (삼성동, 범화빌라)",서울특별시 강남구 삼성동 57-5,생활방범,4,200,360도전방면,30,2014-09,02-3423-6963,37.519016,127.055584,2017-11-13
"서울특별시 강남구청",서울특별시 강남구 봉은사로111길 22-2 (삼성동),서울특별시 강남구 삼성동 100-1,생활방범,5,200,360도전방면,30,2014-09,02-3423-6963,37.516684,127.065139,2017-11-13
"서울특별시 강남구청",서울특별시 강남구 영동대로128길 59 (삼성동),서울특별시 강남구 삼성동 82-7,생활방범,3,200,360도전방면,30,2014-09,02-3423-6963,37.519031,127.063612,2017-11-13
"서울특별시 강남구청","서울특별시 강남구 영동대로112길 15 (삼성동, 풍림아파트)",서울특별시 강남구 삼성동 106,생활방범,4,200,360도전방면,30,2015-02,02-3423-6963,37.515466,127.060930,2017-11-13
"서울특별시 강남구청",서울특별시 강남구 영동대로118길 39 (삼성동),서울특별시 강남구 삼성동 93,생활방범,3,200,360도전방면,30,2015-02,02-3423-6963,37.517678,127.061080,2017-11-13
"서울특별시 강남구청",서울특별시 강남구 삼성로122길 25 (삼성동),서울특별시 강남구 삼성동 60-3,생활방범,4,200,360도전방면,30,2015-08,02-3423-6963,37.518187,127.054782,2017-11-13
"서울특별시 강남구청",서울특별시 강남구 테헤란로83길 40 (삼성동),서울특별시 강남구 삼성동 153-21,생활방범,5,200,360도전방면,30,2015-08,02-3423-6963,37.509817,127.056842,2017-11-13
"서울특별시 강남구청",서울특별시 강남구 삼성로112길 23 (삼성동),서울특별시 강남구 삼성동 68-6,생활방범,4,200,360도전방면,30,2015-08,02-3423-6963,37.515634,127.053747,2017-11-13
"서울특별시 강남구청",서울특별시 강남구 영동대로 630-7 (삼성동),서울특별시 강남구 삼성동 90-3,어린이보호,4,200,360도전방면,30,2015-12,02-3423-6963,37.516497,127.060050,2017-11-13
"서울특별시 강남구청",서울특별시 강남구 삼성로104길 9 (삼성동),서울특별시 강남구 삼성동 150-25,생활방범,5,200,360도전방면,30,2015-12,02-3423-6963,37.483502,127.043637,2017-11-13
"서울특별시 강남구청",서울특별시 강남구 삼성로120길 28 (삼성동),서울특별시 강남구 삼성동 63-10,어린이보호,4,200,360도전방면,30,2016-06,02-3423-6963,37.517672,127.053387,2017-11-13
"서울특별시 강남구청",서울특별시 강남구 봉은사로108길 33 (삼성동),서울특별시 강남구 삼성동 166,생활방범,3,400,360도전방면,30,2016-07,02-3423-6963,37.512926,127.064597,2017-11-13
"서울특별시 강남구청",서울특별시 강남구 강남대로122길 60 (논현동),서울특별시 강남구 논현동 157-9,생활방범,4,200,360도전방면,30,2016-12,02-3423-6963,37.509364,127.027502,2017-11-13
"서울특별시 강남구청",서울특별시 강남구 강남대로120길 70,서울특별시 강남구 논현동 188-3,생활방범,5,200,360도전방면,30,2016-12,02-3423-6963,37.507497,127.028960,2017-11-13
"서울특별시 강남구청",서울특별시 강남구 논현로115길 35,서울특별시 강남구 논현동 189-11,생활방범,4,200,360도전방면,30,2016-12,02-3423-6963,37.508090,127.030163,2017-11-13
"서울특별시 강남구청",서울특별시 강남구 논현동 205-7,서울특별시 강남구 논현동 205-7,생활방범,3,200,360도전방면,30,2016-12,02-3423-6963,37.506600,127.031090,2017-11-13
"서울특별시 강남구청",서울특별시 강남구 선릉로112길 34,서울특별시 강남구 삼성동 38-10,생활방범,5,200,360도전방면,30,2016-12,02-3423-6963,37.511814,127.046414,2017-11-13
"서울특별시 강남구청",서울특별시 강남구 삼성로115길 24,서울특별시 강남구 삼성동 24-32,생활방범,5,200,360도전방면,30,2016-12,02-3423-6963,37.514344,127.050216,2017-11-13
"서울특별시 강남구청",서울특별시 강남구 세곡동 96-19,서울특별시 강남구 세곡동 96-19,생활방범,4,200,360도전방면,30,2005-07,02-3423-6963,37.465264,127.109738,2017-11-13
"서울특별시 강남구청",서울특별시 강남구 헌릉로637길 36 (세곡동),서울특별시 강남구 세곡동 113,생활방범,3,400,360도전방면,30,2008-01,02-3423-6963,37.466635,127.108858,2017-11-13
"서울특별시 강남구청",서울특별시 강남구 헌릉로645길 31 (세곡동),서울특별시 강남구 세곡동 108-9,생활방범,3,400,360도전방면,30,2009-02,02-3423-6963,37.466994,127.109753,2017-11-13
"서울특별시 강남구청",서울특별시 강남구 세곡동 122-2 (대왕초 정문),서울특별시 강남구 세곡동 122-2 (대왕초 정문),어린이보호,3,200,360도전방면,30,2009-02,02-3423-6963,37.464516,127.106511,2017-11-13
"서울특별시 강남구청",서울특별시 강남구 세곡동 166-3 (세곡2교),서울특별시 강남구 세곡동 166-3 (세곡2교),생활방범,1,200,360도전방면,30,2005-07,02-3423-6963,37.462200,127.107313,2017-11-13
"서울특별시 강남구청",서울특별시 강남구 밤고개로23길 8,서울특별시 강남구 세곡동 228-1 (아랫방죽마을공원 건너),생활방범,4,200,360도전방면,30,2005-07,02-3423-6963,37.473202,127.107890,2017-11-13
"서울특별시 강남구청",서울특별시 강남구 세곡동 369-3 (은곡마을공원 내),서울특별시 강남구 세곡동 369-3 (은곡마을공원 내),생활방범,3,200,360도전방면,30,2008-01,02-3423-6963,37.468189,127.100283,2017-11-13
"서울특별시 강남구청",서울특별시 강남구 헌릉로571길 46-20 (세곡동),서울특별시 강남구 세곡동 365-2,생활방범,1,41,360도전방면,30,2009-02,02-3423-6963,37.469087,127.100160,2017-11-13
"서울특별시 강남구청",서울특별시 강남구 헌릉로571길 34-15 (세곡동),서울특별시 강남구 세곡동 367-1,생활방범,1,200,360도전방면,30,2004-08,02-3423-6963,37.468725,127.100728,2017-11-13
"서울특별시 강남구청",서울특별시 강남구 율현동 253-3,서울특별시 강남구 율현동 253-3,생활방범,1,41,360도전방면,30,2005-07,02-3423-6963,37.471822,127.106213,2017-11-13
"서울특별시 강남구청",서울특별시 강남구 율현동 313,서울특별시 강남구 율현동 313,생활방범,1,41,360도전방면,30,2005-07,02-3423-6963,37.470326,127.105009,2017-11-13
"서울특별시 강남구청",서울특별시 강남구 밤고개로24길 84-20 (율현동),서울특별시 강남구 율현동 322-15,생활방범,1,41,360도전방면,30,2004-08,02-3423-6963,37.470424,127.102627,2017-11-13
"서울특별시 강남구청",서울특별시 강남구 자곡동 213-1,서울특별시 강남구 자곡동 213-1,생활방범,1,41,360도전방면,30,2005-07,02-3423-6963,37.483153,127.104333,2017-11-13
"서울특별시 강남구청",서울특별시 강남구 자곡동 233-2 (쟁골마을회관 옆 공원),서울특별시 강남구 자곡동 233-2 (쟁골마을회관 옆 공원),생활방범,4,200,360도전방면,30,2009-02,02-3423-6963,37.482004,127.101882,2017-11-13
"서울특별시 강남구청",서울특별시 강남구 자곡동 302-19,서울특별시 강남구 자곡동 302-19,생활방범,1,41,360도전방면,30,2005-07,02-3423-6963,37.481548,127.104161,2017-11-13
"서울특별시 강남구청",서울특별시 강남구 자곡로7길 8-17 (자곡동),서울특별시 강남구 자곡동 425-19,생활방범,1,41,360도전방면,30,2005-07,02-3423-6963,37.474421,127.099791,2017-11-13
"서울특별시 강남구청","서울특별시 강남구 삼성로133길 20 (청담동, 청담동삼성1차아파트)","서울특별시 강남구 청담동 33, 45-1 사잇길 (삼성1차A 옆)",생활방범,4,200,360도전방면,30,2014-01,02-3423-6963,37.518882,127.047919,2017-11-13
"서울특별시 강남구청",서울특별시 강남구 대치동 633-7,서울특별시 강남구 대치동 633-7,생활방범,4,200,360도전방면,30,2004-08,02-3423-6963,37.494503,127.055866,2017-11-13
"서울특별시 강남구청",서울특별시 강남구 남부순환로391길 25 (대치동),서울특별시 강남구 대치동 645,생활방범,1,41,360도전방면,30,2004-08,02-3423-6963,37.493439,127.056810,2017-11-13
"서울특별시 강남구청","서울특별시 강남구 선릉로 222 (대치동, 대치아이파크아파트)",서울특별시 강남구 대치동 888 (단국사대부속고 정문 건너),생활방범,3,200,360도전방면,30,2004-08,02-3423-6963,37.495346,127.055372,2017-11-13
"서울특별시 강남구청","서울특별시 강남구 도곡로78길 22 (대치동, 삼성아파트)",서울특별시 강남구 대치동 1014-3 (삼성A 109동 담장),생활방범,1,41,360도전방면,30,2004-08,02-3423-6963,37.495778,127.059228,2017-11-13
"서울특별시 강남구청","서울특별시 강남구 삼성로57길 45 (대치동, 삼성아파트)",서울특별시 강남구 대치동 1014,생활방범,3,200,360도전방면,30,2009-02,02-3423-6963,37.496776,127.056563,2017-11-13
"서울특별시 강남구청",서울특별시 강남구 도곡로64길 21 (대치동),서울특별시 강남구 대치동 1013-3 (단국사대부속중고 담장),생활방범,1,200,360도전방면,30,2004-08,02-3423-6963,37.495839,127.057089,2017-11-13
"서울특별시 강남구청",서울특별시 강남구 삼성로 233 (대치동),서울특별시 강남구 대치동 1019-1,생활방범,5,200,360도전방면,30,2004-08,02-3423-6963,37.497552,127.060533,2017-11-13
"서울특별시 강남구청",서울특별시 강남구 도곡로 446 (대치동),서울특별시 강남구 대치동 1021-1,어린이보호,3,200,360도전방면,30,2009-02,02-3423-6963,37.497841,127.059635,2017-11-13
"서울특별시 강남구청",서울특별시 강남구 대치동 1014-4 (대치까치공원 입구),서울특별시 강남구 대치동 1014-4 (대치까치공원 입구),생활방범,3,200,360도전방면,30,2010-09,02-3423-6963,37.497114,127.059338,2017-11-13
"서울특별시 강남구청",서울특별시 강남구 대치동 504 (선경1차A 1동 옆),서울특별시 강남구 대치동 504 (선경1차A 1동 옆),어린이보호,1,41,360도전방면,30,2004-08,02-3423-6963,37.492583,127.060109,2017-11-13
"서울특별시 강남구청","서울특별시 강남구 선릉로 206 (대치동, 동부센트레빌)",서울특별시 강남구 대치동 670 (동부센트레빌A 103동 담장),어린이보호,1,200,360도전방면,30,2011-04,02-3423-6963,37.493498,127.054371,2017-11-13
"서울특별시 강남구청",서울특별시 강남구 도곡로78길 8 (대치동),서울특별시 강남구 대치동 1015-7,어린이보호,4,200,360도전방면,30,2014-01,02-3423-6963,37.497449,127.058597,2017-11-13
"서울특별시 강남구청",서울특별시 강남구 대치동 500-2 (개포2차우성A),서울특별시 강남구 대치동 500-2 (개포2차우성A),생활방범,3,200,360도전방면,30,2014-01,02-3423-6963,37.491341,127.057002,2017-11-13
"서울특별시 강남구청",서울특별시 강남구 양재천로 363 (대치동),서울특별시 강남구 대치동 505 (대치초 후문),어린이보호,3,200,360도전방면,30,2014-09,02-3423-6963,37.490372,127.063211,2017-11-13
"서울특별시 강남구청",서울특별시 강남구 도곡로 408 (대치동),서울특별시 강남구 대치동 1024,생활방범,4,200,360도전방면,30,2015-02,02-3423-6963,37.496367,127.055002,2017-11-13
"서울특별시 강남구청",서울특별시 강남구 도곡로78길 6 (대치동),서울특별시 강남구 대치동 1022-3 (묘동교회 앞 사거리),어린이보호,5,200,360도전방면,30,2015-08,02-3423-6963,37.497639,127.059204,2017-11-13
"서울특별시 강남구청",서울특별시 강남구 대치동 501 (늘벗공원 내 선릉로 쪽 출입구),서울특별시 강남구 대치동 501 (늘벗공원 내 선릉로 쪽 출입구),생활방범,4,200,360도전방면,30,2015-08,02-3423-6963,37.489539,127.056334,2017-11-13
"서울특별시 강남구청",서울특별시 강남구 남부순환로 2936 (대치동),서울특별시 강남구 대치동 507 (자전거보관대 설치 부근),생활방범,3,200,360도전방면,30,2015-08,02-3423-6963,37.493808,127.061841,2017-11-13
"서울특별시 강남구청",서울특별시 강남구 도곡로64길 21,"서울특별시 강남구 대치동 1013-2, 633번지 사이길",생활방범,3,200,360도전방면,30,2015-12,02-3423-6963,37.494939,127.056694,2017-11-13
"서울특별시 강남구청",서울특별시 강남구 도곡로 510,서울특별시 강남구 대치동 989-3 (강남한의원 주변),교통단속,1,41,360도전방면,30,2005-07,02-3423-6963,37.499235,127.062509,2017-11-13
"서울특별시 강남구청",서울특별시 강남구 영동대로 421,서울특별시 강남구 대치동 947-7 (동양증권 주변),교통단속,1,200,360도전방면,30,2007-12,02-3423-6963,37.507325,127.063609,2017-11-13
"서울특별시 강남구청",서울특별시 강남구 테헤란로114길 23,서울특별시 강남구 대치동 998-1 (강남경찰서 주변),교통단속,1,41,360도전방면,30,2006-09,02-3423-6963,37.508566,127.066977,2017-11-13
"서울특별시 강남구청",서울특별시 강남구 도곡로 524,서울특별시 강남구 대치동 991 (루마썬팅 대치점) 주변),교통단속,1,200,360도전방면,30,2009-06,02-3423-6963,37.499612,127.063677,2017-11-13
"서울특별시 강남구청",서울특별시 강남구 삼성로 334,서울특별시 강남구 대치동 962-21 (대치현대아파트상가 주변),교통단속,1,200,360도전방면,30,2011-01,02-3423-6963,37.501390,127.059765,2017-11-13
"서울특별시 강남구청",서울특별시 강남구 도곡로83길 8 (대치동),서울특별시 강남구 대치동 987 (아카데미국제학교 주변),어린이보호,1,400,360도전방면,30,2016-06,02-3423-6963,37.500182,127.062239,2017-11-13
"서울특별시 강남구청",서울특별시 강남구 역삼로 522,서울특별시 강남구 대치동 965-1 (명품논술학원 주변),교통단속,1,41,360도전방면,30,2005-07,02-3423-6963,37.503589,127.060469,2017-11-13
"서울특별시 강남구청",서울특별시 강남구 역삼로 536,서울특별시 강남구 대치동 966-4 (휘문중고등학교 주변),어린이보호,1,41,360도전방면,30,2014-01,02-3423-6963,37.504016,127.061809,2017-11-13
"서울특별시 강남구청",서울특별시 강남구 삼성로64길 5,서울특별시 강남구 대치동 974 (대치현대아파트 주변),교통단속,1,200,360도전방면,30,2014-01,02-3423-6963,37.500280,127.060370,2017-11-13
"서울특별시 강남구청",서울특별시 강남구 영동대로 312,서울특별시 강남구 대치동 1009 (렉서스강남전시장 주변),교통단속,1,41,360도전방면,30,2014-02,02-3423-6963,37.502629,127.067786,2017-11-13
"서울특별시 강남구청",서울특별시 강남구 선릉로 312,서울특별시 강남구 대치동 936 (올리브영 주변),어린이보호,1,200,360도전방면,30,2005-07,02-3423-6963,37.497560,127.052440,2017-11-13
"서울특별시 강남구청",서울특별시 강남구 도곡로 439,서울특별시 강남구 대치동 940-10 (신화빌딩 주변),교통단속,1,41,360도전방면,30,2005-07,02-3423-6963,37.498278,127.058621,2017-11-13
"서울특별시 강남구청",서울특별시 강남구 삼성로 301,서울특별시 강남구 대치동 941-18 (기업은행 대치중앙지점 주변),교통단속,1,41,360도전방면,30,2005-07,02-3423-6963,37.498911,127.060525,2017-11-13
"서울특별시 강남구청",서울특별시 강남구 테헤란로 408,서울특별시 강남구 대치동 889-12 (선릉역1번출구 주변),교통단속,1,41,360도전방면,30,2006-09,02-3423-6963,37.504646,127.050213,2017-11-13
"서울특별시 강남구청",서울특별시 강남구 역삼로 415,서울특별시 강남구 대치동 907-18 (KB 대치서지점 주변),교통단속,1,200,360도전방면,30,2009-06,02-3423-6963,37.501169,127.052557,2017-11-13
"서울특별시 강남구청",서울특별시 강남구 역삼로 438,서울특별시 강남구 대치동 910-5 (풍림아이원아파트 주변),교통단속,1,200,360도전방면,30,2009-06,02-3423-6963,37.501879,127.055180,2017-11-13
"서울특별시 강남구청",서울특별시 강남구 삼성로81길 21,서울특별시 강남구 대치동 901-66,교통단속,1,200,360도전방면,30,2015-08,02-3423-6963,37.504245,127.056244,2017-11-13
"서울특별시 강남구청",서울특별시 강남구 삼성로85길 11 (대치동),서울특별시 강남구 대치동 893 (대치롯데캐슬아파트 상가 주변),교통단속,1,200,360도전방면,30,2016-06,02-3423-6963,37.504803,127.055947,2017-11-13
"서울특별시 강남구청",서울특별시 강남구 선릉로 338 (대치동),서울특별시 강남구 대치동 921 (바로크안경점 주변),교통단속,1,200,360도전방면,30,2016-12,02-3423-6963,37.499907,127.051338,2017-11-13
"서울특별시 강남구청",서울특별시 강남구 논현로 209,서울특별시 강남구 도곡동 967-1 (도곡경남아파트 주변),어린이보호,1,200,360도전방면,30,2010-01,02-3423-6963,37.489311,127.041354,2017-11-13
"서울특별시 강남구청",서울특별시 강남구 남부순환로 2629,서울특별시 강남구 도곡동 959-28 (은광여고입구 주변),어린이보호,1,41,360도전방면,30,2005-07,02-3423-6963,37.485169,127.037252,2017-11-13
"서울특별시 강남구청","서울특별시 강남구 삼성로 14 (개포동, 주공아파트)",서울특별시 강남구 개포동 189 (개포주공4단지 401동 앞),생활방범,1,200,360도전방면,30,2010-09,02-3423-6963,37.486032,127.067635,2017-11-13
"서울특별시 강남구청",서울특별시 강남구 영동대로3길 45 (개포동),서울특별시 강남구 개포동 188 (개포주공4단지 445동 건너),어린이보호,1,200,360도전방면,30,2010-09,02-3423-6963,37.486785,127.071664,2017-11-13
"서울특별시 강남구청","서울특별시 강남구 삼성로 11 (개포동, 주공아파트)",서울특별시 강남구 개포동 138 (개포주공3단지 다상가 앞),생활방범,1,200,360도전방면,30,2010-09,02-3423-6963,37.484132,127.068395,2017-11-13
"서울특별시 강남구청","서울특별시 강남구 삼성로 11 (개포동, 주공아파트)",서울특별시 강남구 개포동 138 (개포주공3단지 후문 입구),생활방범,1,200,360도전방면,30,2010-09,02-3423-6963,37.484982,127.065790,2017-11-13
"서울특별시 강남구청",서울특별시 강남구 개포로82길 13-9 (개포동),서울특별시 강남구 개포동 186-4,생활방범,1,200,360도전방면,30,2011-04,02-3423-6963,37.488546,127.067982,2017-11-13
"서울특별시 강남구청",서울특별시 강남구 선릉로 30 (개포동),서울특별시 강남구 개포동 167-4,생활방범,4,200,360도전방면,30,2012-11,02-3423-6963,37.482742,127.061182,2017-11-13
"서울특별시 강남구청",서울특별시 강남구 선릉로4길 17 (개포동),서울특별시 강남구 개포동 158-7,생활방범,4,200,360도전방면,30,2012-11,02-3423-6963,37.482809,127.062544,2017-11-13
"서울특별시 강남구청",서울특별시 강남구 영동대로3길 9 (개포동),서울특별시 강남구 개포동 189-3 (개포어린이집 앞),어린이보호,3,200,360도전방면,30,2012-12,02-3423-6963,37.488093,127.073654,2017-11-13
"서울특별시 강남구청",서울특별시 강남구 영동대로4길 20 (일원동),서울특별시 강남구 일원동 691 (일원초 후문),어린이보호,1,41,360도전방면,30,2009-02,02-3423-6963,37.489556,127.075386,2017-11-13
"서울특별시 강남구청",서울특별시 강남구 개포로 513 (개포동),서울특별시 강남구 개포동 183 (양전초교 육교삼거리),어린이보호,3,200,360도전방면,30,2014-01,02-3423-6963,37.490150,127.070929,2017-11-13
"서울특별시 강남구청","서울특별시 강남구 선릉로10길 28 (개포동, 우성파크빌라)",서울특별시 강남구 개포동 161,생활방범,4,200,360도전방면,30,2014-02,02-3423-6963,37.484289,127.062013,2017-11-13
"서울특별시 강남구청",서울특별시 강남구 개포로 지하403 (개포동),서울특별시 강남구 개포동 175-5 (구룡역2~3번출구 사이),생활방범,4,200,360도전방면,30,2014-01,02-3423-6963,37.486921,127.060082,2017-11-13
"서울특별시 강남구청",서울특별시 강남구 개포로82길 9-11 (개포동),서울특별시 강남구 개포동 186-10,생활방범,5,200,360도전방면,30,2014-09,02-3423-6963,37.489020,127.067864,2017-11-13
"서울특별시 강남구청",서울특별시 강남구 영동대로3길 45 (개포동),서울특별시 강남구 개포동 188,어린이보호,3,200,360도전방면,30,2014-09,02-3423-6963,37.486780,127.069693,2017-11-13
"서울특별시 강남구청",서울특별시 강남구 개포동 156-1,서울특별시 강남구 개포동 156-1,생활방범,3,200,360도전방면,30,2015-02,02-3423-6963,37.485992,127.059497,2017-11-13
"서울특별시 강남구청",서울특별시 강남구 개포로 402 (개포동),서울특별시 강남구 개포동 173,생활방범,4,200,360도전방면,30,2015-02,02-3423-6963,37.483927,127.059223,2017-11-13
"서울특별시 강남구청",서울특별시 강남구 영동대로 101 (개포동),서울특별시 강남구 개포동 183-1 (개원중학교-영동6교 인접지),생활방범,4,200,360도전방면,30,2015-08,02-3423-6963,37.492449,127.071784,2017-11-13
"서울특별시 강남구청",서울특별시 강남구 삼성로 14,서울특별시 강남구 개포동 189 (개포주공4단지 420동 옆 간이 출입문),생활방범,4,200,360도전방면,30,2015-08,02-3423-6963,37.483169,127.069805,2017-11-13
"서울특별시 강남구청",서울특별시 강남구 영동대로4길 7 (일원동),서울특별시 강남구 개포동 613,어린이보호,1,41,360도전방면,30,2005-07,02-3423-6963,37.488969,127.074400,2017-11-13
"서울특별시 강남구청",서울특별시 강남구 개포로 516 (개포동),서울특별시 강남구 개포동 185-1,어린이보호,4,200,360도전방면,30,2015-12,02-3423-6963,37.488548,127.071634,2017-11-13
"서울특별시 강남구청",서울특별시 강남구 양재대로 478 (개포동),서울특별시 강남구 개포동 154,생활방범,4,200,360도전방면,30,2015-12,02-3423-6963,37.487383,127.064587,2017-11-13
"서울특별시 강남구청",서울특별시 강남구 삼성로122길 47 (삼성동),서울특별시 강남구 삼성동 58-7,생활방범,4,400,360도전방면,30,2016-07,02-3423-6963,37.519128,127.056050,2017-11-13
"서울특별시 강남구청",서울특별시 강남구 테헤란로87길 25 (삼성동),서울특별시 강남구 삼성동 154-13,생활방범,4,400,360도전방면,30,2016-07,02-3423-6963,37.509364,127.058377,2017-11-13
"서울특별시 강남구청",서울특별시 강남구 영동대로122길 23 (삼성동),서울특별시 강남구 삼성동 85-5,생활방범,4,400,360도전방면,30,2016-07,02-3423-6963,37.517316,127.060579,2017-11-13
"서울특별시 강남구청",서울특별시 강남구 삼성로120길 18,서울특별시 강남구 삼성동 63-24,생활방범,4,200,360도전방면,30,2016-12,02-3423-6963,37.517030,127.052802,2017-11-13
"서울특별시 강남구청",서울특별시 강남구 봉은사로109길 49-8,서울특별시 강남구 삼성동 95-5,생활방범,5,200,360도전방면,30,2016-12,02-3423-6963,37.518143,127.062193,2017-11-13
"서울특별시 강남구청",서울특별시 강남구 영동대로118길 56,서울특별시 강남구 삼성동 94-11,생활방범,5,200,360도전방면,30,2016-12,02-3423-6963,37.517823,127.062958,2017-11-13
"서울특별시 강남구청",서울특별시 강남구 삼성로120길 16-7,서울특별시 강남구 삼성동 63-25,생활방범,4,200,360도전방면,30,2016-12,02-3423-6963,37.516830,127.053429,2017-11-13
"서울특별시 강남구청","서울특별시 강남구 선릉로130길 19 (삼성동, 서광아파트)",서울특별시 강남구 삼성동 2 (서광A 101동 담장),생활방범,5,200,360도전방면,30,2008-01,02-3423-6963,37.516702,127.042463,2017-11-13
"서울특별시 강남구청",서울특별시 강남구 선릉로130길 56 (삼성동),서울특별시 강남구 삼성동 5 (한솔A 102동 담장),생활방범,1,200,360도전방면,30,2004-08,02-3423-6963,37.516674,127.045451,2017-11-13
"서울특별시 강남구청",서울특별시 강남구 삼성동 7-5 (삼성래미안A 107동 담장),서울특별시 강남구 삼성동 7-5 (삼성래미안A 107동 담장),생활방범,3,200,360도전방면,30,2004-08,02-3423-6963,37.515373,127.042933,2017-11-13
"서울특별시 강남구청","서울특별시 강남구 삼성로 629 (삼성동, 상아3차아파트)",서울특별시 강남구 삼성동 22 (상아A 5동 담장),생활방범,1,41,360도전방면,30,2004-08,02-3423-6963,37.515498,127.050316,2017-11-13
"서울특별시 강남구청","서울특별시 강남구 학동로68길 29 (삼성동, 삼성동힐스테이트1단지아파트)",서울특별시 강남구 삼성동 16-2 (삼성동힐스테이트A 113동 앞),생활방범,1,41,360도전방면,30,2004-08,02-3423-6963,37.515477,127.048763,2017-11-13
"서울특별시 강남구청",서울특별시 강남구 삼성동 111-128 (언주중 담장),서울특별시 강남구 삼성동 111-128 (언주중 담장),어린이보호,1,41,360도전방면,30,2004-08,02-3423-6963,37.513706,127.047851,2017-11-13
"서울특별시 강남구청","서울특별시 강남구 봉은사로63길 47 (삼성동, 삼성벨라스아파트)",서울특별시 강남구 삼성동 29-19,생활방범,1,41,360도전방면,30,2009-02,02-3423-6963,37.514528,127.045877,2017-11-13
"서울특별시 강남구청",서울특별시 강남구 봉은사로59길 43 (삼성동),서울특별시 강남구 삼성동 30-17,생활방범,4,200,360도전방면,30,2004-08,02-3423-6963,37.513713,127.044869,2017-11-13
"서울특별시 강남구청","서울특별시 강남구 봉은사로57길 33 (삼성동, 삼성대우멤버스카운티3차)",서울특별시 강남구 삼성동 33-24,생활방범,1,41,360도전방면,30,2005-07,02-3423-6963,37.512762,127.044514,2017-11-13
"서울특별시 강남구청",서울특별시 강남구 역삼로37길 11-10 (역삼동),서울특별시 강남구 역삼동 729-10,생활방범,4,200,360도전방면,30,2004-08,02-3423-6963,37.498511,127.041968,2017-11-13
"서울특별시 강남구청","서울특별시 강남구 언주로 332 (역삼동, 역삼푸르지오아파트)",서울특별시 강남구 역삼동 754-1 (역삼푸르지오A 107동 앞),생활방범,1,41,360도전방면,30,2004-08,02-3423-6963,37.497097,127.046425,2017-11-13
"서울특별시 강남구청",서울특별시 강남구 선릉로69길 7 (역삼동),서울특별시 강남구 역삼동 756-11,생활방범,3,200,360도전방면,30,2008-01,02-3423-6963,37.498370,127.051320,2017-11-13
"서울특별시 강남구청","서울특별시 강남구 선릉로69길 19 (역삼동, 역삼래미안아파트)",서울특별시 강남구 역삼동 757 (래미안상가),생활방범,4,200,360도전방면,30,2009-02,02-3423-6963,37.497298,127.051349,2017-11-13
"서울특별시 강남구청",서울특별시 강남구 도곡로43길 10 (역삼동),서울특별시 강남구 역삼동 767-20 (역삼중 담장),생활방범,4,200,360도전방면,30,2004-08,02-3423-6963,37.495971,127.049412,2017-11-13
"서울특별시 강남구청",서울특별시 강남구 자곡로7길 16-11 (자곡동),서울특별시 강남구 자곡동 440-93,생활방범,1,41,360도전방면,30,2009-02,02-3423-6963,37.474343,127.098942,2017-11-13
"서울특별시 강남구청",서울특별시 강남구 자곡동 515-18,서울특별시 강남구 자곡동 515-18,생활방범,1,41,360도전방면,30,2005-07,02-3423-6963,37.473098,127.096720,2017-11-13
"서울특별시 강남구청",서울특별시 강남구 밤고개로23길 20-28 (율현동),서울특별시 강남구 율현동 196-21,생활방범,1,200,360도전방면,30,2010-09,02-3423-6963,37.472254,127.109580,2017-11-13
"서울특별시 강남구청",서울특별시 강남구 자곡동 447-23 (푸른어린이집 앞),서울특별시 강남구 자곡동 447-23 (푸른어린이집 앞),어린이보호,5,200,360도전방면,30,2010-09,02-3423-6963,37.473463,127.099986,2017-11-13
"서울특별시 강남구청",서울특별시 강남구 세곡동 128-2,서울특별시 강남구 세곡동 128-2,생활방범,1,200,360도전방면,30,2011-04,02-3423-6963,37.464314,127.107250,2017-11-13
"서울특별시 강남구청",서울특별시 강남구 자곡로7길 22-31 (자곡동),서울특별시 강남구 자곡동 440-145,생활방범,1,200,360도전방면,30,2011-04,02-3423-6963,37.474944,127.097543,2017-11-13
"서울특별시 강남구청",서울특별시 강남구 세곡동 172-28,서울특별시 강남구 세곡동 172-28,생활방범,3,200,360도전방면,30,2011-12,02-3423-6963,37.463036,127.105272,2017-11-13
"서울특별시 강남구청",서울특별시 강남구 밤고개로24길 44-15 (율현동),서울특별시 강남구 율현동 300-20,생활방범,4,200,360도전방면,30,2011-12,02-3423-6963,37.472075,127.104833,2017-11-13
"서울특별시 강남구청",서울특별시 강남구 세곡동 258 (리엔파크A 104동 건너 어린이공원 내),서울특별시 강남구 세곡동 258 (리엔파크A 104동 건너 어린이공원 내),생활방범,1,41,360도전방면,30,2011-01,02-3423-6963,37.463139,127.101072,2017-11-13
"서울특별시 강남구청",서울특별시 강남구 세곡동 185 (건너 어린이공원 내),서울특별시 강남구 세곡동 185 (건너 어린이공원 내),생활방범,1,41,360도전방면,30,2011-01,02-3423-6963,37.462427,127.104338,2017-11-13
"서울특별시 강남구청",서울특별시 강남구 세곡동 525-1 (근린공원 입구),서울특별시 강남구 세곡동 525-1 (근린공원 입구),생활방범,1,41,360도전방면,30,2011-01,02-3423-6963,37.460507,127.103587,2017-11-13
"서울특별시 강남구청",서울특별시 강남구 세곡동 525-1 (근린공원 놀이터),서울특별시 강남구 세곡동 525-1 (근린공원 놀이터),생활방범,1,41,360도전방면,30,2011-01,02-3423-6963,37.460482,127.103169,2017-11-13
"서울특별시 강남구청",서울특별시 강남구 세곡동 243 (세곡리엔파크5단지A 501동 뒤쪽 입구),서울특별시 강남구 세곡동 243 (세곡리엔파크5단지A 501동 뒤쪽 입구),생활방범,4,200,360도전방면,30,2012-11,02-3423-6963,37.461367,127.101702,2017-11-13
"서울특별시 강남구청",서울특별시 강남구 자곡동 271-14,서울특별시 강남구 자곡동 271-14,생활방범,4,200,360도전방면,30,2012-11,02-3423-6963,37.481427,127.103311,2017-11-13
"서울특별시 강남구청",서울특별시 강남구 세곡동 461-10 (대우푸르지오은곡마을삼거리),서울특별시 강남구 세곡동 461-10 (대우푸르지오은곡마을삼거리),생활방범,5,200,360도전방면,30,2014-01,02-3423-6963,37.467053,127.094367,2017-11-13
"서울특별시 강남구청",서울특별시 강남구 율현동 308-29 (방죽어린이집 앞),서울특별시 강남구 율현동 308-29 (방죽어린이집 앞),어린이보호,5,200,360도전방면,30,2013-12,02-3423-6963,37.469807,127.104195,2017-11-13
"서울특별시 강남구청","서울특별시 강남구 개포로109길 21 (개포동, 대청아파트)",서울특별시 강남구 개포동 12-3 (대치2단지A 209동과 한마음공원 사이),생활방범,1,200,360도전방면,30,2010-09,02-3423-6963,37.496078,127.075549,2017-11-13
"서울특별시 강남구청","서울특별시 강남구 개포로109길 21 (개포동, 대청아파트)",서울특별시 강남구 개포동 12 (삼익대청A 302동 입구),어린이보호,1,200,360도전방면,30,2011-04,02-3423-6963,37.495719,127.077770,2017-11-13
"서울특별시 강남구청",서울특별시 강남구 영동대로4길 20 (일원동),서울특별시 강남구 일원동 691 (일원초 정문),어린이보호,1,200,360도전방면,30,2011-04,02-3423-6963,37.489131,127.077099,2017-11-13
"서울특별시 강남구청","서울특별시 강남구 개포로110길 36 (일원동, 대우아파트)",서울특별시 강남구 일원동 690 (늘푸른공원 화장실 앞),생활방범,4,200,360도전방면,30,2012-11,02-3423-6963,37.489551,127.077352,2017-11-13
"서울특별시 강남구청",서울특별시 강남구 남부순환로 2911 (대치동),서울특별시 강남구 대치동 653,생활방범,4,400,360도전방면,30,2016-07,02-3423-6963,37.492424,127.058207,2017-11-13
"서울특별시 강남구청",서울특별시 강남구 삼성로 223,서울특별시 강남구 대치동 447,생활방범,3,200,360도전방면,30,2016-12,02-3423-6963,37.496903,127.061442,2017-11-13
"서울특별시 강남구청",서울특별시 강남구 삼성로 155 (대치동),서울특별시 강남구 대치동 507-2 (대치역 7번출구 현대자동차 대리점 앞),생활방범,3,200,360도전방면,30,2016-12,02-3423-6963,37.494175,127.063011,2017-11-13
"서울특별시 강남구청",서울특별시 강남구 도곡로 458 (대치동),서울특별시 강남구 대치동 1021-6,생활방범,3,200,360도전방면,30,2016-12,02-3423-6963,37.498627,127.060622,2017-11-13
"서울특별시 강남구청",서울특별시 강남구 영동대로 216 (대치동),서울특별시 강남구 대치동 50-45,생활방범,4,400,360도전방면,30,2004-08,02-3423-6963,37.498379,127.069065,2017-11-13
"서울특별시 강남구청",서울특별시 강남구 영동대로 216 (대치동),서울특별시 강남구 대치동 316 (은마A 단지내 20동 옆),생활방범,3,400,360도전방면,30,2004-08,02-3423-6963,37.496512,127.063808,2017-11-13
"서울특별시 강남구청","서울특별시 강남구 삼성로 150 (대치동, 미도맨션)",서울특별시 강남구 대치동 511 (대곡초 정문 건너 한보미도종합상가),어린이보호,1,200,360도전방면,30,2004-08,02-3423-6963,37.495054,127.065731,2017-11-13
"서울특별시 강남구청","서울특별시 강남구 삼성로 150 (대치동, 미도맨션)",서울특별시 강남구 대치동 511 (한보미도A 207동 쪽 입구),생활방범,3,200,360도전방면,30,2009-02,02-3423-6963,37.491694,127.068290,2017-11-13
"서울특별시 강남구청","서울특별시 강남구 삼성로 150 (대치동, 미도맨션)",서울특별시 강남구 대치동 511 (대치공원 내 한보A 211동 옆),생활방범,1,41,360도전방면,30,2009-02,02-3423-6963,37.494260,127.070001,2017-11-13
"서울특별시 강남구청",서울특별시 강남구 대치동 512 (대치공원 입구),서울특별시 강남구 대치동 512 (대치공원 입구),생활방범,3,200,360도전방면,30,2005-07,02-3423-6963,37.496188,127.069802,2017-11-13
"서울특별시 강남구청",서울특별시 강남구 압구정로10길 18 (신사동),서울특별시 강남구 신사동 524-37,생활방범,1,200,360도전방면,30,2011-04,02-3423-6963,37.522480,127.021872,2017-11-13
"서울특별시 강남구청",서울특별시 강남구 도산대로11길 31-9 (신사동),서울특별시 강남구 신사동 517-24,생활방범,1,200,360도전방면,30,2011-04,02-3423-6963,37.519116,127.021543,2017-11-13
"서울특별시 강남구청",서울특별시 강남구 도산대로25길 15-13 (신사동),서울특별시 강남구 신사동 562-3,생활방범,1,41,360도전방면,30,2011-04,02-3423-6963,37.520633,127.026732,2017-11-13
"서울특별시 강남구청","서울특별시 강남구 강남대로160길 30 (신사동, 신사아크빌)",서울특별시 강남구 신사동 519-6,생활방범,1,200,360도전방면,30,2011-04,02-3423-6963,37.519892,127.021105,2017-11-13
"서울특별시 강남구청","서울특별시 강남구 언주로167길 15 (신사동, 신성아파트)",서울특별시 강남구 압구정동 390 (한강시민공원 잠원지구 입구),생활방범,4,200,360도전방면,30,2014-01,02-3423-6963,37.526790,127.020953,2017-11-13
"서울특별시 강남구청",서울특별시 강남구 논현로157길 19 (신사동),서울특별시 강남구 신사동 565-1,생활방범,1,200,360도전방면,30,2011-04,02-3423-6963,37.522343,127.026493,2017-11-13
"서울특별시 강남구청",서울특별시 강남구 논현로189길 6 (압구정동),서울특별시 강남구 압구정동 390 (신사나들목),생활방범,1,200,360도전방면,30,2011-12,02-3423-6963,37.526478,127.020566,2017-11-13
"서울특별시 강남구청",서울특별시 강남구 강남대로 632 (신사동),서울특별시 강남구 신사동 503-2,생활방범,5,200,360도전방면,30,2011-12,02-3423-6963,37.518124,127.019799,2017-11-13
"서울특별시 강남구청",서울특별시 강남구 압구정로 127 (압구정동),서울특별시 강남구 압구정동 425 (현대고 담장),생활방범,4,200,360도전방면,30,2004-08,02-3423-6963,37.525201,127.021597,2017-11-13
"서울특별시 강남구청","서울특별시 강남구 압구정로 151 (압구정동, 현대아파트)",서울특별시 강남구 압구정동 433 (신현대A 단지 내 127동 125동 사이),생활방범,1,41,360도전방면,30,2008-01,02-3423-6963,37.527481,127.025218,2017-11-13
"서울특별시 강남구청",서울특별시 강남구 논현로189길 6 (압구정동),서울특별시 강남구 압구정동 390 (신현대A 113동 건너),생활방범,3,200,360도전방면,30,2004-08,02-3423-6963,37.527409,127.021742,2017-11-13
"서울특별시 강남구청",서울특별시 강남구 도곡동 909-8,서울특별시 강남구 도곡동 909-8,어린이보호,1,200,360도전방면,30,2015-08,02-3423-6963,37.486677,127.039311,2017-11-13
